{
"type": "FeatureCollection",
"name": "quiz_chiba",
"crs": { "type": "name", "properties": { "name": "urn:ogc:def:crs:OGC:1.3:CRS84" } },
"features": [
{ "type": "Feature", "properties": { "name": "いすみ鉄道 上総中野駅", "type": "鉄道駅", "city": "大多喜町" }, "geometry": { "type": "Point", "coordinates": [ 140.1996, 35.25 ] } },
{ "type": "Feature", "properties": { "name": "いすみ鉄道 大多喜駅", "type": "鉄道駅", "city": "大多喜町" }, "geometry": { "type": "Point", "coordinates": [ 140.2438, 35.2865 ] } },
{ "type": "Feature", "properties": { "name": "いすみ鉄道 東総元駅", "type": "鉄道駅", "city": "大多喜町" }, "geometry": { "type": "Point", "coordinates": [ 140.2476, 35.2594 ] } },
{ "type": "Feature", "properties": { "name": "いすみ鉄道 上総中川駅", "type": "鉄道駅", "city": "いすみ市" }, "geometry": { "type": "Point", "coordinates": [ 140.2806, 35.2827 ] } },
{ "type": "Feature", "properties": { "name": "いすみ鉄道 国吉駅", "type": "鉄道駅", "city": "いすみ市" }, "geometry": { "type": "Point", "coordinates": [ 140.314, 35.2804 ] } },
{ "type": "Feature", "properties": { "name": "いすみ鉄道 久我原駅", "type": "鉄道駅", "city": "大多喜町" }, "geometry": { "type": "Point", "coordinates": [ 140.2477, 35.2502 ] } },
{ "type": "Feature", "properties": { "name": "いすみ鉄道 上総東駅", "type": "鉄道駅", "city": "いすみ市" }, "geometry": { "type": "Point", "coordinates": [ 140.3449, 35.2633 ] } },
{ "type": "Feature", "properties": { "name": "いすみ鉄道 西畑駅", "type": "鉄道駅", "city": "大多喜町" }, "geometry": { "type": "Point", "coordinates": [ 140.2152, 35.2505 ] } },
{ "type": "Feature", "properties": { "name": "いすみ鉄道 小谷松駅", "type": "鉄道駅", "city": "大多喜町" }, "geometry": { "type": "Point", "coordinates": [ 140.251, 35.269 ] } },
{ "type": "Feature", "properties": { "name": "いすみ鉄道 総元駅", "type": "鉄道駅", "city": "大多喜町" }, "geometry": { "type": "Point", "coordinates": [ 140.2404, 35.2406 ] } },
{ "type": "Feature", "properties": { "name": "いすみ鉄道 西大原駅", "type": "鉄道駅", "city": "いすみ市" }, "geometry": { "type": "Point", "coordinates": [ 140.378, 35.2605 ] } },
{ "type": "Feature", "properties": { "name": "いすみ鉄道 新田野駅", "type": "鉄道駅", "city": "いすみ市" }, "geometry": { "type": "Point", "coordinates": [ 140.3285, 35.276 ] } },
{ "type": "Feature", "properties": { "name": "いすみ鉄道 大原駅", "type": "鉄道駅", "city": "いすみ市" }, "geometry": { "type": "Point", "coordinates": [ 140.391, 35.251 ] } },
{ "type": "Feature", "properties": { "name": "京成電鉄 千葉中央駅", "type": "鉄道駅", "city": "千葉市" }, "geometry": { "type": "Point", "coordinates": [ 140.1178, 35.6075 ] } },
{ "type": "Feature", "properties": { "name": "京成電鉄 千葉寺駅", "type": "鉄道駅", "city": "千葉市" }, "geometry": { "type": "Point", "coordinates": [ 140.1322, 35.5904 ] } },
{ "type": "Feature", "properties": { "name": "京成電鉄 大森台駅", "type": "鉄道駅", "city": "千葉市" }, "geometry": { "type": "Point", "coordinates": [ 140.1496, 35.584 ] } },
{ "type": "Feature", "properties": { "name": "京成電鉄 ちはら台駅", "type": "鉄道駅", "city": "市原市" }, "geometry": { "type": "Point", "coordinates": [ 140.1701, 35.5335 ] } },
{ "type": "Feature", "properties": { "name": "京成電鉄 学園前駅", "type": "鉄道駅", "city": "千葉市" }, "geometry": { "type": "Point", "coordinates": [ 140.1584, 35.5605 ] } },
{ "type": "Feature", "properties": { "name": "京成電鉄 おゆみ野駅", "type": "鉄道駅", "city": "千葉市" }, "geometry": { "type": "Point", "coordinates": [ 140.1663, 35.55 ] } },
{ "type": "Feature", "properties": { "name": "京成電鉄 京成津田沼駅", "type": "鉄道駅", "city": "習志野市" }, "geometry": { "type": "Point", "coordinates": [ 140.0248, 35.6836 ] } },
{ "type": "Feature", "properties": { "name": "京成電鉄 新千葉駅", "type": "鉄道駅", "city": "千葉市" }, "geometry": { "type": "Point", "coordinates": [ 140.1086, 35.6125 ] } },
{ "type": "Feature", "properties": { "name": "京成電鉄 みどり台駅", "type": "鉄道駅", "city": "千葉市" }, "geometry": { "type": "Point", "coordinates": [ 140.0973, 35.6253 ] } },
{ "type": "Feature", "properties": { "name": "京成電鉄 京成稲毛駅", "type": "鉄道駅", "city": "千葉市" }, "geometry": { "type": "Point", "coordinates": [ 140.0857, 35.6372 ] } },
{ "type": "Feature", "properties": { "name": "京成電鉄 京成千葉駅", "type": "鉄道駅", "city": "千葉市" }, "geometry": { "type": "Point", "coordinates": [ 140.1144, 35.6116 ] } },
{ "type": "Feature", "properties": { "name": "京成電鉄 検見川駅", "type": "鉄道駅", "city": "千葉市" }, "geometry": { "type": "Point", "coordinates": [ 140.0668, 35.6525 ] } },
{ "type": "Feature", "properties": { "name": "京成電鉄 千葉中央駅", "type": "鉄道駅", "city": "千葉市" }, "geometry": { "type": "Point", "coordinates": [ 140.1178, 35.6075 ] } },
{ "type": "Feature", "properties": { "name": "京成電鉄 西登戸駅", "type": "鉄道駅", "city": "千葉市" }, "geometry": { "type": "Point", "coordinates": [ 140.1029, 35.6176 ] } },
{ "type": "Feature", "properties": { "name": "京成電鉄 京成幕張駅", "type": "鉄道駅", "city": "千葉市" }, "geometry": { "type": "Point", "coordinates": [ 140.0561, 35.6605 ] } },
{ "type": "Feature", "properties": { "name": "京成電鉄 京成幕張本郷駅", "type": "鉄道駅", "city": "千葉市" }, "geometry": { "type": "Point", "coordinates": [ 140.0417, 35.6729 ] } },
{ "type": "Feature", "properties": { "name": "京成電鉄 京成成田駅", "type": "鉄道駅", "city": "成田市" }, "geometry": { "type": "Point", "coordinates": [ 140.3155, 35.7763 ] } },
{ "type": "Feature", "properties": { "name": "京成電鉄 東成田駅", "type": "鉄道駅", "city": "成田市" }, "geometry": { "type": "Point", "coordinates": [ 140.3873, 35.7697 ] } },
{ "type": "Feature", "properties": { "name": "京成電鉄 成田空港駅", "type": "鉄道駅", "city": "成田市" }, "geometry": { "type": "Point", "coordinates": [ 140.3863, 35.7657 ] } },
{ "type": "Feature", "properties": { "name": "京成電鉄 空港第2ビル駅", "type": "鉄道駅", "city": "成田市" }, "geometry": { "type": "Point", "coordinates": [ 140.3876, 35.773 ] } },
{ "type": "Feature", "properties": { "name": "京成電鉄 京成大和田駅", "type": "鉄道駅", "city": "八千代市" }, "geometry": { "type": "Point", "coordinates": [ 140.1086, 35.7124 ] } },
{ "type": "Feature", "properties": { "name": "京成電鉄 志津駅", "type": "鉄道駅", "city": "佐倉市" }, "geometry": { "type": "Point", "coordinates": [ 140.1449, 35.7174 ] } },
{ "type": "Feature", "properties": { "name": "京成電鉄 京成西船駅", "type": "鉄道駅", "city": "船橋市" }, "geometry": { "type": "Point", "coordinates": [ 139.9588, 35.7117 ] } },
{ "type": "Feature", "properties": { "name": "京成電鉄 京成佐倉駅", "type": "鉄道駅", "city": "佐倉市" }, "geometry": { "type": "Point", "coordinates": [ 140.2299, 35.7252 ] } },
{ "type": "Feature", "properties": { "name": "京成電鉄 大神宮下駅", "type": "鉄道駅", "city": "船橋市" }, "geometry": { "type": "Point", "coordinates": [ 139.9914, 35.694 ] } },
{ "type": "Feature", "properties": { "name": "京成電鉄 京成八幡駅", "type": "鉄道駅", "city": "市川市" }, "geometry": { "type": "Point", "coordinates": [ 139.9282, 35.7239 ] } },
{ "type": "Feature", "properties": { "name": "京成電鉄 京成大久保駅", "type": "鉄道駅", "city": "習志野市" }, "geometry": { "type": "Point", "coordinates": [ 140.0486, 35.6859 ] } },
{ "type": "Feature", "properties": { "name": "京成電鉄 実籾駅", "type": "鉄道駅", "city": "習志野市" }, "geometry": { "type": "Point", "coordinates": [ 140.0681, 35.6869 ] } },
{ "type": "Feature", "properties": { "name": "京成電鉄 谷津駅", "type": "鉄道駅", "city": "習志野市" }, "geometry": { "type": "Point", "coordinates": [ 140.0077, 35.6853 ] } },
{ "type": "Feature", "properties": { "name": "京成電鉄 ユーカリが丘駅", "type": "鉄道駅", "city": "佐倉市" }, "geometry": { "type": "Point", "coordinates": [ 140.1562, 35.7218 ] } },
{ "type": "Feature", "properties": { "name": "京成電鉄 京成成田駅", "type": "鉄道駅", "city": "成田市" }, "geometry": { "type": "Point", "coordinates": [ 140.3155, 35.7763 ] } },
{ "type": "Feature", "properties": { "name": "京成電鉄 京成津田沼駅", "type": "鉄道駅", "city": "習志野市" }, "geometry": { "type": "Point", "coordinates": [ 140.0248, 35.6836 ] } },
{ "type": "Feature", "properties": { "name": "京成電鉄 船橋競馬場駅", "type": "鉄道駅", "city": "船橋市" }, "geometry": { "type": "Point", "coordinates": [ 139.9981, 35.6896 ] } },
{ "type": "Feature", "properties": { "name": "京成電鉄 勝田台駅", "type": "鉄道駅", "city": "八千代市" }, "geometry": { "type": "Point", "coordinates": [ 140.126, 35.7154 ] } },
{ "type": "Feature", "properties": { "name": "京成電鉄 宗吾参道駅", "type": "鉄道駅", "city": "酒々井町" }, "geometry": { "type": "Point", "coordinates": [ 140.2807, 35.7524 ] } },
{ "type": "Feature", "properties": { "name": "京成電鉄 公津の杜駅", "type": "鉄道駅", "city": "成田市" }, "geometry": { "type": "Point", "coordinates": [ 140.2944, 35.7602 ] } },
{ "type": "Feature", "properties": { "name": "京成電鉄 海神駅", "type": "鉄道駅", "city": "船橋市" }, "geometry": { "type": "Point", "coordinates": [ 139.9718, 35.7059 ] } },
{ "type": "Feature", "properties": { "name": "京成電鉄 東中山駅", "type": "鉄道駅", "city": "船橋市" }, "geometry": { "type": "Point", "coordinates": [ 139.9526, 35.7144 ] } },
{ "type": "Feature", "properties": { "name": "京成電鉄 鬼越駅", "type": "鉄道駅", "city": "市川市" }, "geometry": { "type": "Point", "coordinates": [ 139.9379, 35.7198 ] } },
{ "type": "Feature", "properties": { "name": "京成電鉄 八千代台駅", "type": "鉄道駅", "city": "八千代市" }, "geometry": { "type": "Point", "coordinates": [ 140.0908, 35.7014 ] } },
{ "type": "Feature", "properties": { "name": "京成電鉄 京成中山駅", "type": "鉄道駅", "city": "船橋市" }, "geometry": { "type": "Point", "coordinates": [ 139.9444, 35.717 ] } },
{ "type": "Feature", "properties": { "name": "京成電鉄 京成臼井駅", "type": "鉄道駅", "city": "佐倉市" }, "geometry": { "type": "Point", "coordinates": [ 140.1808, 35.73 ] } },
{ "type": "Feature", "properties": { "name": "京成電鉄 大佐倉駅", "type": "鉄道駅", "city": "佐倉市" }, "geometry": { "type": "Point", "coordinates": [ 140.2507, 35.7299 ] } },
{ "type": "Feature", "properties": { "name": "京成電鉄 京成船橋駅", "type": "鉄道駅", "city": "船橋市" }, "geometry": { "type": "Point", "coordinates": [ 139.9852, 35.7 ] } },
{ "type": "Feature", "properties": { "name": "京成電鉄 京成酒々井駅", "type": "鉄道駅", "city": "酒々井町" }, "geometry": { "type": "Point", "coordinates": [ 140.2702, 35.7369 ] } },
{ "type": "Feature", "properties": { "name": "京成電鉄 菅野駅", "type": "鉄道駅", "city": "市川市" }, "geometry": { "type": "Point", "coordinates": [ 139.9194, 35.7283 ] } },
{ "type": "Feature", "properties": { "name": "京成電鉄 国府台駅", "type": "鉄道駅", "city": "市川市" }, "geometry": { "type": "Point", "coordinates": [ 139.9035, 35.7363 ] } },
{ "type": "Feature", "properties": { "name": "京成電鉄 市川真間駅", "type": "鉄道駅", "city": "市川市" }, "geometry": { "type": "Point", "coordinates": [ 139.9118, 35.7313 ] } },
{ "type": "Feature", "properties": { "name": "ユーカリが丘線 公園駅", "type": "鉄道駅", "city": "佐倉市" }, "geometry": { "type": "Point", "coordinates": [ 140.1537, 35.7307 ] } },
{ "type": "Feature", "properties": { "name": "ユーカリが丘線 中学校駅", "type": "鉄道駅", "city": "佐倉市" }, "geometry": { "type": "Point", "coordinates": [ 140.1485, 35.7401 ] } },
{ "type": "Feature", "properties": { "name": "ユーカリが丘線 井野駅", "type": "鉄道駅", "city": "佐倉市" }, "geometry": { "type": "Point", "coordinates": [ 140.1485, 35.7329 ] } },
{ "type": "Feature", "properties": { "name": "ユーカリが丘線 地区センター駅", "type": "鉄道駅", "city": "佐倉市" }, "geometry": { "type": "Point", "coordinates": [ 140.1552, 35.7262 ] } },
{ "type": "Feature", "properties": { "name": "ユーカリが丘線 ユーカリが丘駅", "type": "鉄道駅", "city": "佐倉市" }, "geometry": { "type": "Point", "coordinates": [ 140.157, 35.7222 ] } },
{ "type": "Feature", "properties": { "name": "ユーカリが丘線 女子大駅", "type": "鉄道駅", "city": "佐倉市" }, "geometry": { "type": "Point", "coordinates": [ 140.1552, 35.7381 ] } },
{ "type": "Feature", "properties": { "name": "芝山鉄道 芝山千代田駅", "type": "鉄道駅", "city": "成田市" }, "geometry": { "type": "Point", "coordinates": [ 140.3996, 35.754 ] } },
{ "type": "Feature", "properties": { "name": "芝山鉄道 東成田駅", "type": "鉄道駅", "city": "成田市" }, "geometry": { "type": "Point", "coordinates": [ 140.3873, 35.7697 ] } },
{ "type": "Feature", "properties": { "name": "TX 柏たなか駅", "type": "鉄道駅", "city": "柏市" }, "geometry": { "type": "Point", "coordinates": [ 139.9575, 35.9109 ] } },
{ "type": "Feature", "properties": { "name": "TX 流山おおたかの森駅", "type": "鉄道駅", "city": "流山市" }, "geometry": { "type": "Point", "coordinates": [ 139.925, 35.8718 ] } },
{ "type": "Feature", "properties": { "name": "TX 柏の葉キャンパス駅", "type": "鉄道駅", "city": "柏市" }, "geometry": { "type": "Point", "coordinates": [ 139.9525, 35.8933 ] } },
{ "type": "Feature", "properties": { "name": "TX 南流山駅", "type": "鉄道駅", "city": "流山市" }, "geometry": { "type": "Point", "coordinates": [ 139.9028, 35.8384 ] } },
{ "type": "Feature", "properties": { "name": "TX 流山セントラルパーク駅", "type": "鉄道駅", "city": "流山市" }, "geometry": { "type": "Point", "coordinates": [ 139.9152, 35.8546 ] } },
{ "type": "Feature", "properties": { "name": "小湊鐵道 五井駅", "type": "鉄道駅", "city": "市原市" }, "geometry": { "type": "Point", "coordinates": [ 140.0897, 35.5131 ] } },
{ "type": "Feature", "properties": { "name": "小湊鐵道 上総鶴舞駅", "type": "鉄道駅", "city": "市原市" }, "geometry": { "type": "Point", "coordinates": [ 140.165, 35.3813 ] } },
{ "type": "Feature", "properties": { "name": "小湊鐵道 里見駅", "type": "鉄道駅", "city": "市原市" }, "geometry": { "type": "Point", "coordinates": [ 140.1455, 35.3372 ] } },
{ "type": "Feature", "properties": { "name": "小湊鐵道 上総久保駅", "type": "鉄道駅", "city": "市原市" }, "geometry": { "type": "Point", "coordinates": [ 140.1544, 35.3675 ] } },
{ "type": "Feature", "properties": { "name": "小湊鐵道 海士有木駅", "type": "鉄道駅", "city": "市原市" }, "geometry": { "type": "Point", "coordinates": [ 140.1243, 35.4817 ] } },
{ "type": "Feature", "properties": { "name": "小湊鐵道 上総山田駅", "type": "鉄道駅", "city": "市原市" }, "geometry": { "type": "Point", "coordinates": [ 140.1262, 35.4541 ] } },
{ "type": "Feature", "properties": { "name": "小湊鐵道 養老渓谷駅", "type": "鉄道駅", "city": "市原市" }, "geometry": { "type": "Point", "coordinates": [ 140.1594, 35.2664 ] } },
{ "type": "Feature", "properties": { "name": "小湊鐵道 馬立駅", "type": "鉄道駅", "city": "市原市" }, "geometry": { "type": "Point", "coordinates": [ 140.1147, 35.4238 ] } },
{ "type": "Feature", "properties": { "name": "小湊鐵道 月崎駅", "type": "鉄道駅", "city": "市原市" }, "geometry": { "type": "Point", "coordinates": [ 140.1396, 35.3021 ] } },
{ "type": "Feature", "properties": { "name": "小湊鐵道 上総村上駅", "type": "鉄道駅", "city": "市原市" }, "geometry": { "type": "Point", "coordinates": [ 140.1004, 35.4961 ] } },
{ "type": "Feature", "properties": { "name": "小湊鐵道 上総牛久駅", "type": "鉄道駅", "city": "市原市" }, "geometry": { "type": "Point", "coordinates": [ 140.1423, 35.4002 ] } },
{ "type": "Feature", "properties": { "name": "小湊鐵道 上総大久保駅", "type": "鉄道駅", "city": "市原市" }, "geometry": { "type": "Point", "coordinates": [ 140.1459, 35.2834 ] } },
{ "type": "Feature", "properties": { "name": "小湊鐵道 飯給駅", "type": "鉄道駅", "city": "市原市" }, "geometry": { "type": "Point", "coordinates": [ 140.1424, 35.3205 ] } },
{ "type": "Feature", "properties": { "name": "小湊鐵道 光風台駅", "type": "鉄道駅", "city": "市原市" }, "geometry": { "type": "Point", "coordinates": [ 140.1142, 35.4396 ] } },
{ "type": "Feature", "properties": { "name": "小湊鐵道 上総中野駅", "type": "鉄道駅", "city": "大多喜町" }, "geometry": { "type": "Point", "coordinates": [ 140.1996, 35.25 ] } },
{ "type": "Feature", "properties": { "name": "小湊鐵道 上総三又駅", "type": "鉄道駅", "city": "市原市" }, "geometry": { "type": "Point", "coordinates": [ 140.1268, 35.4659 ] } },
{ "type": "Feature", "properties": { "name": "小湊鐵道 上総川間駅", "type": "鉄道駅", "city": "市原市" }, "geometry": { "type": "Point", "coordinates": [ 140.151, 35.3881 ] } },
{ "type": "Feature", "properties": { "name": "小湊鐵道 高滝駅", "type": "鉄道駅", "city": "市原市" }, "geometry": { "type": "Point", "coordinates": [ 140.1503, 35.3531 ] } },
{ "type": "Feature", "properties": { "name": "新京成線 高根公団駅", "type": "鉄道駅", "city": "船橋市" }, "geometry": { "type": "Point", "coordinates": [ 140.0294, 35.7304 ] } },
{ "type": "Feature", "properties": { "name": "新京成線 鎌ヶ谷大仏駅", "type": "鉄道駅", "city": "鎌ケ谷市" }, "geometry": { "type": "Point", "coordinates": [ 140.0139, 35.7579 ] } },
{ "type": "Feature", "properties": { "name": "新京成線 新鎌ヶ谷駅", "type": "鉄道駅", "city": "鎌ケ谷市" }, "geometry": { "type": "Point", "coordinates": [ 139.9987, 35.7792 ] } },
{ "type": "Feature", "properties": { "name": "新京成線 みのり台駅", "type": "鉄道駅", "city": "松戸市" }, "geometry": { "type": "Point", "coordinates": [ 139.9288, 35.7893 ] } },
{ "type": "Feature", "properties": { "name": "新京成線 初富駅", "type": "鉄道駅", "city": "鎌ケ谷市" }, "geometry": { "type": "Point", "coordinates": [ 140.0005, 35.772 ] } },
{ "type": "Feature", "properties": { "name": "新京成線 北初富駅", "type": "鉄道駅", "city": "鎌ケ谷市" }, "geometry": { "type": "Point", "coordinates": [ 139.9898, 35.7766 ] } },
{ "type": "Feature", "properties": { "name": "新京成線 薬園台駅", "type": "鉄道駅", "city": "船橋市" }, "geometry": { "type": "Point", "coordinates": [ 140.0367, 35.7091 ] } },
{ "type": "Feature", "properties": { "name": "新京成線 二和向台駅", "type": "鉄道駅", "city": "船橋市" }, "geometry": { "type": "Point", "coordinates": [ 140.0237, 35.7539 ] } },
{ "type": "Feature", "properties": { "name": "新京成線 高根木戸駅", "type": "鉄道駅", "city": "船橋市" }, "geometry": { "type": "Point", "coordinates": [ 140.035, 35.7266 ] } },
{ "type": "Feature", "properties": { "name": "新京成線 元山駅", "type": "鉄道駅", "city": "松戸市" }, "geometry": { "type": "Point", "coordinates": [ 139.9757, 35.7903 ] } },
{ "type": "Feature", "properties": { "name": "新京成線 くぬぎ山駅", "type": "鉄道駅", "city": "鎌ケ谷市" }, "geometry": { "type": "Point", "coordinates": [ 139.9757, 35.7823 ] } },
{ "type": "Feature", "properties": { "name": "新京成線 松戸新田駅", "type": "鉄道駅", "city": "松戸市" }, "geometry": { "type": "Point", "coordinates": [ 139.9223, 35.7907 ] } },
{ "type": "Feature", "properties": { "name": "新京成線 八柱駅", "type": "鉄道駅", "city": "松戸市" }, "geometry": { "type": "Point", "coordinates": [ 139.9375, 35.7914 ] } },
{ "type": "Feature", "properties": { "name": "新京成線 前原駅", "type": "鉄道駅", "city": "船橋市" }, "geometry": { "type": "Point", "coordinates": [ 140.0275, 35.7007 ] } },
{ "type": "Feature", "properties": { "name": "新京成線 三咲駅", "type": "鉄道駅", "city": "船橋市" }, "geometry": { "type": "Point", "coordinates": [ 140.0285, 35.7492 ] } },
{ "type": "Feature", "properties": { "name": "新京成線 新津田沼駅", "type": "鉄道駅", "city": "習志野市" }, "geometry": { "type": "Point", "coordinates": [ 140.0237, 35.6902 ] } },
{ "type": "Feature", "properties": { "name": "新京成線 五香駅", "type": "鉄道駅", "city": "松戸市" }, "geometry": { "type": "Point", "coordinates": [ 139.9658, 35.7973 ] } },
{ "type": "Feature", "properties": { "name": "新京成線 滝不動駅", "type": "鉄道駅", "city": "船橋市" }, "geometry": { "type": "Point", "coordinates": [ 140.0263, 35.738 ] } },
{ "type": "Feature", "properties": { "name": "新京成線 常盤平駅", "type": "鉄道駅", "city": "松戸市" }, "geometry": { "type": "Point", "coordinates": [ 139.9494, 35.8032 ] } },
{ "type": "Feature", "properties": { "name": "新京成線 北習志野駅", "type": "鉄道駅", "city": "船橋市" }, "geometry": { "type": "Point", "coordinates": [ 140.0422, 35.7213 ] } },
{ "type": "Feature", "properties": { "name": "新京成線 習志野駅", "type": "鉄道駅", "city": "船橋市" }, "geometry": { "type": "Point", "coordinates": [ 140.0428, 35.7154 ] } },
{ "type": "Feature", "properties": { "name": "新京成線 京成津田沼駅", "type": "鉄道駅", "city": "習志野市" }, "geometry": { "type": "Point", "coordinates": [ 140.0248, 35.6836 ] } },
{ "type": "Feature", "properties": { "name": "新京成線 松戸駅", "type": "鉄道駅", "city": "松戸市" }, "geometry": { "type": "Point", "coordinates": [ 139.9008, 35.7843 ] } },
{ "type": "Feature", "properties": { "name": "新京成線 上本郷駅", "type": "鉄道駅", "city": "松戸市" }, "geometry": { "type": "Point", "coordinates": [ 139.9158, 35.7894 ] } },
{ "type": "Feature", "properties": { "name": "千葉都市モノレール 千葉駅", "type": "鉄道駅", "city": "千葉市" }, "geometry": { "type": "Point", "coordinates": [ 140.114, 35.6121 ] } },
{ "type": "Feature", "properties": { "name": "千葉都市モノレール 千葉みなと駅", "type": "鉄道駅", "city": "千葉市" }, "geometry": { "type": "Point", "coordinates": [ 140.1028, 35.6071 ] } },
{ "type": "Feature", "properties": { "name": "千葉都市モノレール 葭川公園駅", "type": "鉄道駅", "city": "千葉市" }, "geometry": { "type": "Point", "coordinates": [ 140.1201, 35.6089 ] } },
{ "type": "Feature", "properties": { "name": "千葉都市モノレール 栄町駅", "type": "鉄道駅", "city": "千葉市" }, "geometry": { "type": "Point", "coordinates": [ 140.1187, 35.613 ] } },
{ "type": "Feature", "properties": { "name": "千葉都市モノレール 市役所前駅", "type": "鉄道駅", "city": "千葉市" }, "geometry": { "type": "Point", "coordinates": [ 140.1077, 35.607 ] } },
{ "type": "Feature", "properties": { "name": "千葉都市モノレール 県庁前駅", "type": "鉄道駅", "city": "千葉市" }, "geometry": { "type": "Point", "coordinates": [ 140.1222, 35.6038 ] } },
{ "type": "Feature", "properties": { "name": "千葉都市モノレール 千葉駅", "type": "鉄道駅", "city": "千葉市" }, "geometry": { "type": "Point", "coordinates": [ 140.114, 35.6121 ] } },
{ "type": "Feature", "properties": { "name": "千葉都市モノレール 千城台北駅", "type": "鉄道駅", "city": "千葉市" }, "geometry": { "type": "Point", "coordinates": [ 140.182, 35.6276 ] } },
{ "type": "Feature", "properties": { "name": "千葉都市モノレール みつわ台駅", "type": "鉄道駅", "city": "千葉市" }, "geometry": { "type": "Point", "coordinates": [ 140.1349, 35.6387 ] } },
{ "type": "Feature", "properties": { "name": "千葉都市モノレール 天台駅", "type": "鉄道駅", "city": "千葉市" }, "geometry": { "type": "Point", "coordinates": [ 140.1128, 35.6315 ] } },
{ "type": "Feature", "properties": { "name": "千葉都市モノレール 千葉公園駅", "type": "鉄道駅", "city": "千葉市" }, "geometry": { "type": "Point", "coordinates": [ 140.118, 35.6197 ] } },
{ "type": "Feature", "properties": { "name": "千葉都市モノレール 桜木駅", "type": "鉄道駅", "city": "千葉市" }, "geometry": { "type": "Point", "coordinates": [ 140.161, 35.6314 ] } },
{ "type": "Feature", "properties": { "name": "千葉都市モノレール 穴川駅", "type": "鉄道駅", "city": "千葉市" }, "geometry": { "type": "Point", "coordinates": [ 140.1119, 35.6395 ] } },
{ "type": "Feature", "properties": { "name": "千葉都市モノレール 小倉台駅", "type": "鉄道駅", "city": "千葉市" }, "geometry": { "type": "Point", "coordinates": [ 140.1718, 35.6278 ] } },
{ "type": "Feature", "properties": { "name": "千葉都市モノレール スポーツセンター駅", "type": "鉄道駅", "city": "千葉市" }, "geometry": { "type": "Point", "coordinates": [ 140.1162, 35.6433 ] } },
{ "type": "Feature", "properties": { "name": "千葉都市モノレール 動物公園駅", "type": "鉄道駅", "city": "千葉市" }, "geometry": { "type": "Point", "coordinates": [ 140.1255, 35.6426 ] } },
{ "type": "Feature", "properties": { "name": "千葉都市モノレール 千城台駅", "type": "鉄道駅", "city": "千葉市" }, "geometry": { "type": "Point", "coordinates": [ 140.1885, 35.6224 ] } },
{ "type": "Feature", "properties": { "name": "千葉都市モノレール 作草部駅", "type": "鉄道駅", "city": "千葉市" }, "geometry": { "type": "Point", "coordinates": [ 140.1154, 35.6258 ] } },
{ "type": "Feature", "properties": { "name": "千葉都市モノレール 都賀駅", "type": "鉄道駅", "city": "千葉市" }, "geometry": { "type": "Point", "coordinates": [ 140.1487, 35.6355 ] } },
{ "type": "Feature", "properties": { "name": "流山線 幸谷駅", "type": "鉄道駅", "city": "松戸市" }, "geometry": { "type": "Point", "coordinates": [ 139.9201, 35.827 ] } },
{ "type": "Feature", "properties": { "name": "流山線 鰭ヶ崎駅", "type": "鉄道駅", "city": "流山市" }, "geometry": { "type": "Point", "coordinates": [ 139.9111, 35.841 ] } },
{ "type": "Feature", "properties": { "name": "流山線 馬橋駅", "type": "鉄道駅", "city": "松戸市" }, "geometry": { "type": "Point", "coordinates": [ 139.917, 35.8121 ] } },
{ "type": "Feature", "properties": { "name": "流山線 流山駅", "type": "鉄道駅", "city": "流山市" }, "geometry": { "type": "Point", "coordinates": [ 139.9018, 35.8558 ] } },
{ "type": "Feature", "properties": { "name": "流山線 小金城趾駅", "type": "鉄道駅", "city": "松戸市" }, "geometry": { "type": "Point", "coordinates": [ 139.9169, 35.836 ] } },
{ "type": "Feature", "properties": { "name": "流山線 平和台駅", "type": "鉄道駅", "city": "流山市" }, "geometry": { "type": "Point", "coordinates": [ 139.9012, 35.8511 ] } },
{ "type": "Feature", "properties": { "name": "銚子電鉄 銚子駅", "type": "鉄道駅", "city": "銚子市" }, "geometry": { "type": "Point", "coordinates": [ 140.8275, 35.7293 ] } },
{ "type": "Feature", "properties": { "name": "銚子電鉄 海鹿島駅", "type": "鉄道駅", "city": "銚子市" }, "geometry": { "type": "Point", "coordinates": [ 140.8631, 35.7221 ] } },
{ "type": "Feature", "properties": { "name": "銚子電鉄 笠上黒生駅", "type": "鉄道駅", "city": "銚子市" }, "geometry": { "type": "Point", "coordinates": [ 140.8569, 35.7284 ] } },
{ "type": "Feature", "properties": { "name": "銚子電鉄 犬吠駅", "type": "鉄道駅", "city": "銚子市" }, "geometry": { "type": "Point", "coordinates": [ 140.8609, 35.7063 ] } },
{ "type": "Feature", "properties": { "name": "銚子電鉄 外川駅", "type": "鉄道駅", "city": "銚子市" }, "geometry": { "type": "Point", "coordinates": [ 140.8573, 35.6993 ] } },
{ "type": "Feature", "properties": { "name": "銚子電鉄 仲ノ町駅", "type": "鉄道駅", "city": "銚子市" }, "geometry": { "type": "Point", "coordinates": [ 140.8338, 35.7288 ] } },
{ "type": "Feature", "properties": { "name": "銚子電鉄 西海鹿島駅", "type": "鉄道駅", "city": "銚子市" }, "geometry": { "type": "Point", "coordinates": [ 140.8602, 35.7251 ] } },
{ "type": "Feature", "properties": { "name": "銚子電鉄 観音駅", "type": "鉄道駅", "city": "銚子市" }, "geometry": { "type": "Point", "coordinates": [ 140.8398, 35.7289 ] } },
{ "type": "Feature", "properties": { "name": "銚子電鉄 本銚子駅", "type": "鉄道駅", "city": "銚子市" }, "geometry": { "type": "Point", "coordinates": [ 140.8473, 35.7309 ] } },
{ "type": "Feature", "properties": { "name": "銚子電鉄 君ヶ浜駅", "type": "鉄道駅", "city": "銚子市" }, "geometry": { "type": "Point", "coordinates": [ 140.8605, 35.7141 ] } },
{ "type": "Feature", "properties": { "name": "東西線 原木中山駅", "type": "鉄道駅", "city": "船橋市" }, "geometry": { "type": "Point", "coordinates": [ 139.9419, 35.7033 ] } },
{ "type": "Feature", "properties": { "name": "東西線 妙典駅", "type": "鉄道駅", "city": "市川市" }, "geometry": { "type": "Point", "coordinates": [ 139.9243, 35.691 ] } },
{ "type": "Feature", "properties": { "name": "東西線 浦安駅", "type": "鉄道駅", "city": "浦安市" }, "geometry": { "type": "Point", "coordinates": [ 139.8932, 35.6659 ] } },
{ "type": "Feature", "properties": { "name": "東西線 行徳駅", "type": "鉄道駅", "city": "市川市" }, "geometry": { "type": "Point", "coordinates": [ 139.9142, 35.6826 ] } },
{ "type": "Feature", "properties": { "name": "東西線 南行徳駅", "type": "鉄道駅", "city": "市川市" }, "geometry": { "type": "Point", "coordinates": [ 139.9023, 35.6727 ] } },
{ "type": "Feature", "properties": { "name": "東西線 西船橋駅", "type": "鉄道駅", "city": "船橋市" }, "geometry": { "type": "Point", "coordinates": [ 139.9588, 35.7073 ] } },
{ "type": "Feature", "properties": { "name": "都営新宿線 本八幡駅", "type": "鉄道駅", "city": "市川市" }, "geometry": { "type": "Point", "coordinates": [ 139.9269, 35.7233 ] } },
{ "type": "Feature", "properties": { "name": "JR 本千葉駅", "type": "鉄道駅", "city": "千葉市" }, "geometry": { "type": "Point", "coordinates": [ 140.1214, 35.6006 ] } },
{ "type": "Feature", "properties": { "name": "JR 千葉駅", "type": "鉄道駅", "city": "千葉市" }, "geometry": { "type": "Point", "coordinates": [ 140.1131, 35.6131 ] } },
{ "type": "Feature", "properties": { "name": "JR 蘇我駅", "type": "鉄道駅", "city": "千葉市" }, "geometry": { "type": "Point", "coordinates": [ 140.1307, 35.5822 ] } },
{ "type": "Feature", "properties": { "name": "JR 新茂原駅", "type": "鉄道駅", "city": "茂原市" }, "geometry": { "type": "Point", "coordinates": [ 140.2997, 35.4494 ] } },
{ "type": "Feature", "properties": { "name": "JR 八積駅", "type": "鉄道駅", "city": "長生村" }, "geometry": { "type": "Point", "coordinates": [ 140.3454, 35.404 ] } },
{ "type": "Feature", "properties": { "name": "JR 三門駅", "type": "鉄道駅", "city": "いすみ市" }, "geometry": { "type": "Point", "coordinates": [ 140.3914, 35.2829 ] } },
{ "type": "Feature", "properties": { "name": "JR 本納駅", "type": "鉄道駅", "city": "茂原市" }, "geometry": { "type": "Point", "coordinates": [ 140.3076, 35.4822 ] } },
{ "type": "Feature", "properties": { "name": "JR 安房鴨川駅", "type": "鉄道駅", "city": "鴨川市" }, "geometry": { "type": "Point", "coordinates": [ 140.1037, 35.1076 ] } },
{ "type": "Feature", "properties": { "name": "JR 鵜原駅", "type": "鉄道駅", "city": "勝浦市" }, "geometry": { "type": "Point", "coordinates": [ 140.279, 35.1413 ] } },
{ "type": "Feature", "properties": { "name": "JR 鎌取駅", "type": "鉄道駅", "city": "千葉市" }, "geometry": { "type": "Point", "coordinates": [ 140.1787, 35.5627 ] } },
{ "type": "Feature", "properties": { "name": "JR 上総一ノ宮駅", "type": "鉄道駅", "city": "一宮町" }, "geometry": { "type": "Point", "coordinates": [ 140.3655, 35.3747 ] } },
{ "type": "Feature", "properties": { "name": "JR 御宿駅", "type": "鉄道駅", "city": "御宿町" }, "geometry": { "type": "Point", "coordinates": [ 140.3514, 35.1875 ] } },
{ "type": "Feature", "properties": { "name": "JR 行川アイランド駅", "type": "鉄道駅", "city": "勝浦市" }, "geometry": { "type": "Point", "coordinates": [ 140.2257, 35.1183 ] } },
{ "type": "Feature", "properties": { "name": "JR 茂原駅", "type": "鉄道駅", "city": "茂原市" }, "geometry": { "type": "Point", "coordinates": [ 140.3041, 35.4268 ] } },
{ "type": "Feature", "properties": { "name": "JR 長者町駅", "type": "鉄道駅", "city": "いすみ市" }, "geometry": { "type": "Point", "coordinates": [ 140.3848, 35.2963 ] } },
{ "type": "Feature", "properties": { "name": "JR 東浪見駅", "type": "鉄道駅", "city": "一宮町" }, "geometry": { "type": "Point", "coordinates": [ 140.3766, 35.3468 ] } },
{ "type": "Feature", "properties": { "name": "JR 永田駅", "type": "鉄道駅", "city": "大網白里市" }, "geometry": { "type": "Point", "coordinates": [ 140.3113, 35.5032 ] } },
{ "type": "Feature", "properties": { "name": "JR 安房小湊駅", "type": "鉄道駅", "city": "鴨川市" }, "geometry": { "type": "Point", "coordinates": [ 140.1898, 35.1286 ] } },
{ "type": "Feature", "properties": { "name": "JR 太東駅", "type": "鉄道駅", "city": "いすみ市" }, "geometry": { "type": "Point", "coordinates": [ 140.3813, 35.3201 ] } },
{ "type": "Feature", "properties": { "name": "JR 浪花駅", "type": "鉄道駅", "city": "いすみ市" }, "geometry": { "type": "Point", "coordinates": [ 140.3791, 35.2226 ] } },
{ "type": "Feature", "properties": { "name": "JR 誉田駅", "type": "鉄道駅", "city": "千葉市" }, "geometry": { "type": "Point", "coordinates": [ 140.2138, 35.547 ] } },
{ "type": "Feature", "properties": { "name": "JR 大原駅", "type": "鉄道駅", "city": "いすみ市" }, "geometry": { "type": "Point", "coordinates": [ 140.391, 35.251 ] } },
{ "type": "Feature", "properties": { "name": "JR 勝浦駅", "type": "鉄道駅", "city": "勝浦市" }, "geometry": { "type": "Point", "coordinates": [ 140.312, 35.1526 ] } },
{ "type": "Feature", "properties": { "name": "JR 土気駅", "type": "鉄道駅", "city": "千葉市" }, "geometry": { "type": "Point", "coordinates": [ 140.2698, 35.5309 ] } },
{ "type": "Feature", "properties": { "name": "JR 安房天津駅", "type": "鉄道駅", "city": "鴨川市" }, "geometry": { "type": "Point", "coordinates": [ 140.1547, 35.1258 ] } },
{ "type": "Feature", "properties": { "name": "JR 上総興津駅", "type": "鉄道駅", "city": "勝浦市" }, "geometry": { "type": "Point", "coordinates": [ 140.2505, 35.1372 ] } },
{ "type": "Feature", "properties": { "name": "JR 大網駅", "type": "鉄道駅", "city": "大網白里市" }, "geometry": { "type": "Point", "coordinates": [ 140.3111, 35.5224 ] } },
{ "type": "Feature", "properties": { "name": "JR 木更津駅", "type": "鉄道駅", "city": "木更津市" }, "geometry": { "type": "Point", "coordinates": [ 139.9261, 35.3816 ] } },
{ "type": "Feature", "properties": { "name": "JR 東横田駅", "type": "鉄道駅", "city": "袖ケ浦市" }, "geometry": { "type": "Point", "coordinates": [ 140.0359, 35.3862 ] } },
{ "type": "Feature", "properties": { "name": "JR 小櫃駅", "type": "鉄道駅", "city": "君津市" }, "geometry": { "type": "Point", "coordinates": [ 140.0598, 35.3282 ] } },
{ "type": "Feature", "properties": { "name": "JR 上総亀山駅", "type": "鉄道駅", "city": "君津市" }, "geometry": { "type": "Point", "coordinates": [ 140.0895, 35.2332 ] } },
{ "type": "Feature", "properties": { "name": "JR 上総清川駅", "type": "鉄道駅", "city": "木更津市" }, "geometry": { "type": "Point", "coordinates": [ 139.9656, 35.3908 ] } },
{ "type": "Feature", "properties": { "name": "JR 久留里駅", "type": "鉄道駅", "city": "君津市" }, "geometry": { "type": "Point", "coordinates": [ 140.0756, 35.2958 ] } },
{ "type": "Feature", "properties": { "name": "JR 平山駅", "type": "鉄道駅", "city": "君津市" }, "geometry": { "type": "Point", "coordinates": [ 140.0647, 35.2743 ] } },
{ "type": "Feature", "properties": { "name": "JR 上総松丘駅", "type": "鉄道駅", "city": "君津市" }, "geometry": { "type": "Point", "coordinates": [ 140.064, 35.2582 ] } },
{ "type": "Feature", "properties": { "name": "JR 下郡駅", "type": "鉄道駅", "city": "君津市" }, "geometry": { "type": "Point", "coordinates": [ 140.0554, 35.355 ] } },
{ "type": "Feature", "properties": { "name": "JR 横田駅", "type": "鉄道駅", "city": "袖ケ浦市" }, "geometry": { "type": "Point", "coordinates": [ 140.0201, 35.3862 ] } },
{ "type": "Feature", "properties": { "name": "JR 東清川駅", "type": "鉄道駅", "city": "木更津市" }, "geometry": { "type": "Point", "coordinates": [ 139.9859, 35.39 ] } },
{ "type": "Feature", "properties": { "name": "JR 馬来田駅", "type": "鉄道駅", "city": "木更津市" }, "geometry": { "type": "Point", "coordinates": [ 140.0585, 35.3668 ] } },
{ "type": "Feature", "properties": { "name": "JR 祇園駅", "type": "鉄道駅", "city": "木更津市" }, "geometry": { "type": "Point", "coordinates": [ 139.9484, 35.3916 ] } },
{ "type": "Feature", "properties": { "name": "JR 俵田駅", "type": "鉄道駅", "city": "君津市" }, "geometry": { "type": "Point", "coordinates": [ 140.0614, 35.3146 ] } },
{ "type": "Feature", "properties": { "name": "JR 西船橋駅", "type": "鉄道駅", "city": "船橋市" }, "geometry": { "type": "Point", "coordinates": [ 139.9595, 35.7072 ] } },
{ "type": "Feature", "properties": { "name": "JR 新習志野駅", "type": "鉄道駅", "city": "習志野市" }, "geometry": { "type": "Point", "coordinates": [ 140.013, 35.6674 ] } },
{ "type": "Feature", "properties": { "name": "JR 市川塩浜駅", "type": "鉄道駅", "city": "市川市" }, "geometry": { "type": "Point", "coordinates": [ 139.9237, 35.6665 ] } },
{ "type": "Feature", "properties": { "name": "JR 稲毛海岸駅", "type": "鉄道駅", "city": "千葉市" }, "geometry": { "type": "Point", "coordinates": [ 140.0738, 35.6295 ] } },
{ "type": "Feature", "properties": { "name": "JR 検見川浜駅", "type": "鉄道駅", "city": "千葉市" }, "geometry": { "type": "Point", "coordinates": [ 140.0591, 35.6372 ] } },
{ "type": "Feature", "properties": { "name": "JR 南船橋駅", "type": "鉄道駅", "city": "船橋市" }, "geometry": { "type": "Point", "coordinates": [ 139.9957, 35.6817 ] } },
{ "type": "Feature", "properties": { "name": "JR 海浜幕張駅", "type": "鉄道駅", "city": "千葉市" }, "geometry": { "type": "Point", "coordinates": [ 140.042, 35.6484 ] } },
{ "type": "Feature", "properties": { "name": "JR 千葉みなと駅", "type": "鉄道駅", "city": "千葉市" }, "geometry": { "type": "Point", "coordinates": [ 140.1028, 35.6067 ] } },
{ "type": "Feature", "properties": { "name": "JR 二俣新町駅", "type": "鉄道駅", "city": "市川市" }, "geometry": { "type": "Point", "coordinates": [ 139.9596, 35.6913 ] } },
{ "type": "Feature", "properties": { "name": "JR 舞浜駅", "type": "鉄道駅", "city": "浦安市" }, "geometry": { "type": "Point", "coordinates": [ 139.8837, 35.6362 ] } },
{ "type": "Feature", "properties": { "name": "JR 新浦安駅", "type": "鉄道駅", "city": "浦安市" }, "geometry": { "type": "Point", "coordinates": [ 139.9125, 35.6495 ] } },
{ "type": "Feature", "properties": { "name": "JR 蘇我駅", "type": "鉄道駅", "city": "千葉市" }, "geometry": { "type": "Point", "coordinates": [ 140.1307, 35.5822 ] } },
{ "type": "Feature", "properties": { "name": "JR 香取駅", "type": "鉄道駅", "city": "香取市" }, "geometry": { "type": "Point", "coordinates": [ 140.5324, 35.8979 ] } },
{ "type": "Feature", "properties": { "name": "JR 十二橋駅", "type": "鉄道駅", "city": "香取市" }, "geometry": { "type": "Point", "coordinates": [ 140.5458, 35.917 ] } },
{ "type": "Feature", "properties": { "name": "JR 南柏駅", "type": "鉄道駅", "city": "柏市" }, "geometry": { "type": "Point", "coordinates": [ 139.9543, 35.8447 ] } },
{ "type": "Feature", "properties": { "name": "JR 柏駅", "type": "鉄道駅", "city": "柏市" }, "geometry": { "type": "Point", "coordinates": [ 139.971, 35.8621 ] } },
{ "type": "Feature", "properties": { "name": "JR 北柏駅", "type": "鉄道駅", "city": "柏市" }, "geometry": { "type": "Point", "coordinates": [ 139.988, 35.8757 ] } },
{ "type": "Feature", "properties": { "name": "JR 新松戸駅", "type": "鉄道駅", "city": "松戸市" }, "geometry": { "type": "Point", "coordinates": [ 139.9212, 35.8254 ] } },
{ "type": "Feature", "properties": { "name": "JR 北小金駅", "type": "鉄道駅", "city": "松戸市" }, "geometry": { "type": "Point", "coordinates": [ 139.9308, 35.8332 ] } },
{ "type": "Feature", "properties": { "name": "JR 天王台駅", "type": "鉄道駅", "city": "我孫子市" }, "geometry": { "type": "Point", "coordinates": [ 140.0423, 35.8725 ] } },
{ "type": "Feature", "properties": { "name": "JR 我孫子駅", "type": "鉄道駅", "city": "我孫子市" }, "geometry": { "type": "Point", "coordinates": [ 140.0104, 35.8728 ] } },
{ "type": "Feature", "properties": { "name": "JR 北松戸駅", "type": "鉄道駅", "city": "松戸市" }, "geometry": { "type": "Point", "coordinates": [ 139.9116, 35.8004 ] } },
{ "type": "Feature", "properties": { "name": "JR 馬橋駅", "type": "鉄道駅", "city": "松戸市" }, "geometry": { "type": "Point", "coordinates": [ 139.9173, 35.8117 ] } },
{ "type": "Feature", "properties": { "name": "JR 松戸駅", "type": "鉄道駅", "city": "松戸市" }, "geometry": { "type": "Point", "coordinates": [ 139.9008, 35.7846 ] } },
{ "type": "Feature", "properties": { "name": "JR 松岸駅", "type": "鉄道駅", "city": "銚子市" }, "geometry": { "type": "Point", "coordinates": [ 140.7952, 35.7394 ] } },
{ "type": "Feature", "properties": { "name": "JR 佐倉駅", "type": "鉄道駅", "city": "佐倉市" }, "geometry": { "type": "Point", "coordinates": [ 140.2268, 35.7097 ] } },
{ "type": "Feature", "properties": { "name": "JR 我孫子駅", "type": "鉄道駅", "city": "我孫子市" }, "geometry": { "type": "Point", "coordinates": [ 140.0104, 35.8728 ] } },
{ "type": "Feature", "properties": { "name": "JR 小見川駅", "type": "鉄道駅", "city": "香取市" }, "geometry": { "type": "Point", "coordinates": [ 140.6046, 35.85 ] } },
{ "type": "Feature", "properties": { "name": "JR 下総神崎駅", "type": "鉄道駅", "city": "神崎町" }, "geometry": { "type": "Point", "coordinates": [ 140.4107, 35.8948 ] } },
{ "type": "Feature", "properties": { "name": "JR 滑河駅", "type": "鉄道駅", "city": "成田市" }, "geometry": { "type": "Point", "coordinates": [ 140.3479, 35.8771 ] } },
{ "type": "Feature", "properties": { "name": "JR 酒々井駅", "type": "鉄道駅", "city": "酒々井町" }, "geometry": { "type": "Point", "coordinates": [ 140.2754, 35.7318 ] } },
{ "type": "Feature", "properties": { "name": "JR 下総松崎駅", "type": "鉄道駅", "city": "成田市" }, "geometry": { "type": "Point", "coordinates": [ 140.2776, 35.8078 ] } },
{ "type": "Feature", "properties": { "name": "JR 久住駅", "type": "鉄道駅", "city": "成田市" }, "geometry": { "type": "Point", "coordinates": [ 140.3389, 35.8322 ] } },
{ "type": "Feature", "properties": { "name": "JR 空港第2ビル駅", "type": "鉄道駅", "city": "成田市" }, "geometry": { "type": "Point", "coordinates": [ 140.3876, 35.773 ] } },
{ "type": "Feature", "properties": { "name": "JR 小林駅", "type": "鉄道駅", "city": "印西市" }, "geometry": { "type": "Point", "coordinates": [ 140.1931, 35.8307 ] } },
{ "type": "Feature", "properties": { "name": "JR 安食駅", "type": "鉄道駅", "city": "栄町" }, "geometry": { "type": "Point", "coordinates": [ 140.2423, 35.8357 ] } },
{ "type": "Feature", "properties": { "name": "JR 佐原駅", "type": "鉄道駅", "city": "香取市" }, "geometry": { "type": "Point", "coordinates": [ 140.4938, 35.8949 ] } },
{ "type": "Feature", "properties": { "name": "JR 布佐駅", "type": "鉄道駅", "city": "我孫子市" }, "geometry": { "type": "Point", "coordinates": [ 140.133, 35.8494 ] } },
{ "type": "Feature", "properties": { "name": "JR 笹川駅", "type": "鉄道駅", "city": "東庄町" }, "geometry": { "type": "Point", "coordinates": [ 140.6558, 35.8394 ] } },
{ "type": "Feature", "properties": { "name": "JR 香取駅", "type": "鉄道駅", "city": "香取市" }, "geometry": { "type": "Point", "coordinates": [ 140.5324, 35.8979 ] } },
{ "type": "Feature", "properties": { "name": "JR 成田空港駅", "type": "鉄道駅", "city": "成田市" }, "geometry": { "type": "Point", "coordinates": [ 140.3863, 35.7657 ] } },
{ "type": "Feature", "properties": { "name": "JR 東我孫子駅", "type": "鉄道駅", "city": "我孫子市" }, "geometry": { "type": "Point", "coordinates": [ 140.0476, 35.869 ] } },
{ "type": "Feature", "properties": { "name": "JR 下総豊里駅", "type": "鉄道駅", "city": "銚子市" }, "geometry": { "type": "Point", "coordinates": [ 140.7209, 35.793 ] } },
{ "type": "Feature", "properties": { "name": "JR 湖北駅", "type": "鉄道駅", "city": "我孫子市" }, "geometry": { "type": "Point", "coordinates": [ 140.0779, 35.8672 ] } },
{ "type": "Feature", "properties": { "name": "JR 水郷駅", "type": "鉄道駅", "city": "香取市" }, "geometry": { "type": "Point", "coordinates": [ 140.5702, 35.8855 ] } },
{ "type": "Feature", "properties": { "name": "JR 大戸駅", "type": "鉄道駅", "city": "香取市" }, "geometry": { "type": "Point", "coordinates": [ 140.4577, 35.8899 ] } },
{ "type": "Feature", "properties": { "name": "JR 新木駅", "type": "鉄道駅", "city": "我孫子市" }, "geometry": { "type": "Point", "coordinates": [ 140.1071, 35.8624 ] } },
{ "type": "Feature", "properties": { "name": "JR 下総橘駅", "type": "鉄道駅", "city": "東庄町" }, "geometry": { "type": "Point", "coordinates": [ 140.7022, 35.8188 ] } },
{ "type": "Feature", "properties": { "name": "JR 成田駅", "type": "鉄道駅", "city": "成田市" }, "geometry": { "type": "Point", "coordinates": [ 140.3136, 35.7772 ] } },
{ "type": "Feature", "properties": { "name": "JR 木下駅", "type": "鉄道駅", "city": "印西市" }, "geometry": { "type": "Point", "coordinates": [ 140.148, 35.8389 ] } },
{ "type": "Feature", "properties": { "name": "JR 椎柴駅", "type": "鉄道駅", "city": "銚子市" }, "geometry": { "type": "Point", "coordinates": [ 140.7589, 35.7652 ] } },
{ "type": "Feature", "properties": { "name": "JR 西船橋駅", "type": "鉄道駅", "city": "船橋市" }, "geometry": { "type": "Point", "coordinates": [ 139.9591, 35.7074 ] } },
{ "type": "Feature", "properties": { "name": "JR 稲毛駅", "type": "鉄道駅", "city": "千葉市" }, "geometry": { "type": "Point", "coordinates": [ 140.0926, 35.6373 ] } },
{ "type": "Feature", "properties": { "name": "JR 西千葉駅", "type": "鉄道駅", "city": "千葉市" }, "geometry": { "type": "Point", "coordinates": [ 140.1033, 35.6226 ] } },
{ "type": "Feature", "properties": { "name": "JR 物井駅", "type": "鉄道駅", "city": "四街道市" }, "geometry": { "type": "Point", "coordinates": [ 140.2003, 35.6857 ] } },
{ "type": "Feature", "properties": { "name": "JR 成東駅", "type": "鉄道駅", "city": "山武市" }, "geometry": { "type": "Point", "coordinates": [ 140.4103, 35.6085 ] } },
{ "type": "Feature", "properties": { "name": "JR 飯岡駅", "type": "鉄道駅", "city": "旭市" }, "geometry": { "type": "Point", "coordinates": [ 140.6834, 35.7294 ] } },
{ "type": "Feature", "properties": { "name": "JR 横芝駅", "type": "鉄道駅", "city": "横芝光町" }, "geometry": { "type": "Point", "coordinates": [ 140.4908, 35.6618 ] } },
{ "type": "Feature", "properties": { "name": "JR 新検見川駅", "type": "鉄道駅", "city": "千葉市" }, "geometry": { "type": "Point", "coordinates": [ 140.0733, 35.6518 ] } },
{ "type": "Feature", "properties": { "name": "JR 八日市場駅", "type": "鉄道駅", "city": "匝瑳市" }, "geometry": { "type": "Point", "coordinates": [ 140.5524, 35.6993 ] } },
{ "type": "Feature", "properties": { "name": "JR 旭駅", "type": "鉄道駅", "city": "旭市" }, "geometry": { "type": "Point", "coordinates": [ 140.6547, 35.7218 ] } },
{ "type": "Feature", "properties": { "name": "JR 松尾駅", "type": "鉄道駅", "city": "山武市" }, "geometry": { "type": "Point", "coordinates": [ 140.4581, 35.6364 ] } },
{ "type": "Feature", "properties": { "name": "JR 西船橋駅", "type": "鉄道駅", "city": "船橋市" }, "geometry": { "type": "Point", "coordinates": [ 139.9591, 35.7075 ] } },
{ "type": "Feature", "properties": { "name": "JR 都賀駅", "type": "鉄道駅", "city": "千葉市" }, "geometry": { "type": "Point", "coordinates": [ 140.1492, 35.636 ] } },
{ "type": "Feature", "properties": { "name": "JR 榎戸駅", "type": "鉄道駅", "city": "八街市" }, "geometry": { "type": "Point", "coordinates": [ 140.2881, 35.6841 ] } },
{ "type": "Feature", "properties": { "name": "JR 津田沼駅", "type": "鉄道駅", "city": "習志野市" }, "geometry": { "type": "Point", "coordinates": [ 140.0202, 35.6914 ] } },
{ "type": "Feature", "properties": { "name": "JR 日向駅", "type": "鉄道駅", "city": "山武市" }, "geometry": { "type": "Point", "coordinates": [ 140.3624, 35.6283 ] } },
{ "type": "Feature", "properties": { "name": "JR 飯倉駅", "type": "鉄道駅", "city": "匝瑳市" }, "geometry": { "type": "Point", "coordinates": [ 140.5214, 35.6851 ] } },
{ "type": "Feature", "properties": { "name": "JR 幕張本郷駅", "type": "鉄道駅", "city": "千葉市" }, "geometry": { "type": "Point", "coordinates": [ 140.0421, 35.6729 ] } },
{ "type": "Feature", "properties": { "name": "JR 猿田駅", "type": "鉄道駅", "city": "銚子市" }, "geometry": { "type": "Point", "coordinates": [ 140.7374, 35.7474 ] } },
{ "type": "Feature", "properties": { "name": "JR 東千葉駅", "type": "鉄道駅", "city": "千葉市" }, "geometry": { "type": "Point", "coordinates": [ 140.1224, 35.6171 ] } },
{ "type": "Feature", "properties": { "name": "JR 四街道駅", "type": "鉄道駅", "city": "四街道市" }, "geometry": { "type": "Point", "coordinates": [ 140.1649, 35.6628 ] } },
{ "type": "Feature", "properties": { "name": "JR 南酒々井駅", "type": "鉄道駅", "city": "酒々井町" }, "geometry": { "type": "Point", "coordinates": [ 140.2679, 35.7043 ] } },
{ "type": "Feature", "properties": { "name": "JR 下総中山駅", "type": "鉄道駅", "city": "船橋市" }, "geometry": { "type": "Point", "coordinates": [ 139.9431, 35.7143 ] } },
{ "type": "Feature", "properties": { "name": "JR 銚子駅", "type": "鉄道駅", "city": "銚子市" }, "geometry": { "type": "Point", "coordinates": [ 140.8275, 35.7293 ] } },
{ "type": "Feature", "properties": { "name": "JR 西船橋駅", "type": "鉄道駅", "city": "船橋市" }, "geometry": { "type": "Point", "coordinates": [ 139.958, 35.708 ] } },
{ "type": "Feature", "properties": { "name": "JR 本八幡駅", "type": "鉄道駅", "city": "市川市" }, "geometry": { "type": "Point", "coordinates": [ 139.9274, 35.7209 ] } },
{ "type": "Feature", "properties": { "name": "JR 幕張駅", "type": "鉄道駅", "city": "千葉市" }, "geometry": { "type": "Point", "coordinates": [ 140.0578, 35.6595 ] } },
{ "type": "Feature", "properties": { "name": "JR 松岸駅", "type": "鉄道駅", "city": "銚子市" }, "geometry": { "type": "Point", "coordinates": [ 140.7952, 35.7394 ] } },
{ "type": "Feature", "properties": { "name": "JR 八街駅", "type": "鉄道駅", "city": "八街市" }, "geometry": { "type": "Point", "coordinates": [ 140.3174, 35.6632 ] } },
{ "type": "Feature", "properties": { "name": "JR 佐倉駅", "type": "鉄道駅", "city": "佐倉市" }, "geometry": { "type": "Point", "coordinates": [ 140.2268, 35.7097 ] } },
{ "type": "Feature", "properties": { "name": "JR 千葉駅", "type": "鉄道駅", "city": "千葉市" }, "geometry": { "type": "Point", "coordinates": [ 140.1135, 35.6135 ] } },
{ "type": "Feature", "properties": { "name": "JR 干潟駅", "type": "鉄道駅", "city": "旭市" }, "geometry": { "type": "Point", "coordinates": [ 140.6033, 35.7183 ] } },
{ "type": "Feature", "properties": { "name": "JR 船橋駅", "type": "鉄道駅", "city": "船橋市" }, "geometry": { "type": "Point", "coordinates": [ 139.9847, 35.7017 ] } },
{ "type": "Feature", "properties": { "name": "JR 倉橋駅", "type": "鉄道駅", "city": "旭市" }, "geometry": { "type": "Point", "coordinates": [ 140.714, 35.7378 ] } },
{ "type": "Feature", "properties": { "name": "JR 東船橋駅", "type": "鉄道駅", "city": "船橋市" }, "geometry": { "type": "Point", "coordinates": [ 140.0041, 35.6998 ] } },
{ "type": "Feature", "properties": { "name": "JR 市川駅", "type": "鉄道駅", "city": "市川市" }, "geometry": { "type": "Point", "coordinates": [ 139.9082, 35.7289 ] } },
{ "type": "Feature", "properties": { "name": "JR 成東駅", "type": "鉄道駅", "city": "山武市" }, "geometry": { "type": "Point", "coordinates": [ 140.4103, 35.6085 ] } },
{ "type": "Feature", "properties": { "name": "JR 求名駅", "type": "鉄道駅", "city": "東金市" }, "geometry": { "type": "Point", "coordinates": [ 140.3962, 35.5798 ] } },
{ "type": "Feature", "properties": { "name": "JR 大網駅", "type": "鉄道駅", "city": "大網白里市" }, "geometry": { "type": "Point", "coordinates": [ 140.3114, 35.523 ] } },
{ "type": "Feature", "properties": { "name": "JR 福俵駅", "type": "鉄道駅", "city": "東金市" }, "geometry": { "type": "Point", "coordinates": [ 140.3419, 35.5462 ] } },
{ "type": "Feature", "properties": { "name": "JR 東金駅", "type": "鉄道駅", "city": "東金市" }, "geometry": { "type": "Point", "coordinates": [ 140.3636, 35.5601 ] } },
{ "type": "Feature", "properties": { "name": "JR 安房鴨川駅", "type": "鉄道駅", "city": "鴨川市" }, "geometry": { "type": "Point", "coordinates": [ 140.1037, 35.1076 ] } },
{ "type": "Feature", "properties": { "name": "JR 蘇我駅", "type": "鉄道駅", "city": "千葉市" }, "geometry": { "type": "Point", "coordinates": [ 140.1307, 35.5822 ] } },
{ "type": "Feature", "properties": { "name": "JR 岩井駅", "type": "鉄道駅", "city": "南房総市" }, "geometry": { "type": "Point", "coordinates": [ 139.8499, 35.0931 ] } },
{ "type": "Feature", "properties": { "name": "JR 巌根駅", "type": "鉄道駅", "city": "木更津市" }, "geometry": { "type": "Point", "coordinates": [ 139.9338, 35.4148 ] } },
{ "type": "Feature", "properties": { "name": "JR 太海駅", "type": "鉄道駅", "city": "鴨川市" }, "geometry": { "type": "Point", "coordinates": [ 140.0962, 35.0815 ] } },
{ "type": "Feature", "properties": { "name": "JR 五井駅", "type": "鉄道駅", "city": "市原市" }, "geometry": { "type": "Point", "coordinates": [ 140.0897, 35.5131 ] } },
{ "type": "Feature", "properties": { "name": "JR 保田駅", "type": "鉄道駅", "city": "鋸南町" }, "geometry": { "type": "Point", "coordinates": [ 139.8382, 35.1415 ] } },
{ "type": "Feature", "properties": { "name": "JR 千歳駅", "type": "鉄道駅", "city": "南房総市" }, "geometry": { "type": "Point", "coordinates": [ 139.9663, 34.9913 ] } },
{ "type": "Feature", "properties": { "name": "JR 木更津駅", "type": "鉄道駅", "city": "木更津市" }, "geometry": { "type": "Point", "coordinates": [ 139.9261, 35.3816 ] } },
{ "type": "Feature", "properties": { "name": "JR 上総湊駅", "type": "鉄道駅", "city": "富津市" }, "geometry": { "type": "Point", "coordinates": [ 139.871, 35.2218 ] } },
{ "type": "Feature", "properties": { "name": "JR 大貫駅", "type": "鉄道駅", "city": "富津市" }, "geometry": { "type": "Point", "coordinates": [ 139.8556, 35.2916 ] } },
{ "type": "Feature", "properties": { "name": "JR 袖ヶ浦駅", "type": "鉄道駅", "city": "袖ケ浦市" }, "geometry": { "type": "Point", "coordinates": [ 139.9572, 35.4319 ] } },
{ "type": "Feature", "properties": { "name": "JR 佐貫町駅", "type": "鉄道駅", "city": "富津市" }, "geometry": { "type": "Point", "coordinates": [ 139.8761, 35.26 ] } },
{ "type": "Feature", "properties": { "name": "JR 江見駅", "type": "鉄道駅", "city": "鴨川市" }, "geometry": { "type": "Point", "coordinates": [ 140.0611, 35.0625 ] } },
{ "type": "Feature", "properties": { "name": "JR 南三原駅", "type": "鉄道駅", "city": "南房総市" }, "geometry": { "type": "Point", "coordinates": [ 139.9791, 35.0212 ] } },
{ "type": "Feature", "properties": { "name": "JR 館山駅", "type": "鉄道駅", "city": "館山市" }, "geometry": { "type": "Point", "coordinates": [ 139.862, 34.9959 ] } },
{ "type": "Feature", "properties": { "name": "JR 浜野駅", "type": "鉄道駅", "city": "千葉市" }, "geometry": { "type": "Point", "coordinates": [ 140.1322, 35.5521 ] } },
{ "type": "Feature", "properties": { "name": "JR 千倉駅", "type": "鉄道駅", "city": "南房総市" }, "geometry": { "type": "Point", "coordinates": [ 139.9545, 34.9768 ] } },
{ "type": "Feature", "properties": { "name": "JR 八幡宿駅", "type": "鉄道駅", "city": "市原市" }, "geometry": { "type": "Point", "coordinates": [ 140.12, 35.5362 ] } },
{ "type": "Feature", "properties": { "name": "JR 那古船形駅", "type": "鉄道駅", "city": "館山市" }, "geometry": { "type": "Point", "coordinates": [ 139.8514, 35.029 ] } },
{ "type": "Feature", "properties": { "name": "JR 九重駅", "type": "鉄道駅", "city": "館山市" }, "geometry": { "type": "Point", "coordinates": [ 139.9114, 34.9975 ] } },
{ "type": "Feature", "properties": { "name": "JR 青堀駅", "type": "鉄道駅", "city": "富津市" }, "geometry": { "type": "Point", "coordinates": [ 139.8589, 35.3306 ] } },
{ "type": "Feature", "properties": { "name": "JR 竹岡駅", "type": "鉄道駅", "city": "富津市" }, "geometry": { "type": "Point", "coordinates": [ 139.83, 35.1976 ] } },
{ "type": "Feature", "properties": { "name": "JR 浜金谷駅", "type": "鉄道駅", "city": "富津市" }, "geometry": { "type": "Point", "coordinates": [ 139.8223, 35.1682 ] } },
{ "type": "Feature", "properties": { "name": "JR 姉ヶ崎駅", "type": "鉄道駅", "city": "市原市" }, "geometry": { "type": "Point", "coordinates": [ 140.0419, 35.4786 ] } },
{ "type": "Feature", "properties": { "name": "JR 和田浦駅", "type": "鉄道駅", "city": "南房総市" }, "geometry": { "type": "Point", "coordinates": [ 140.0196, 35.0417 ] } },
{ "type": "Feature", "properties": { "name": "JR 安房勝山駅", "type": "鉄道駅", "city": "鋸南町" }, "geometry": { "type": "Point", "coordinates": [ 139.8334, 35.1141 ] } },
{ "type": "Feature", "properties": { "name": "JR 長浦駅", "type": "鉄道駅", "city": "袖ケ浦市" }, "geometry": { "type": "Point", "coordinates": [ 139.9954, 35.4503 ] } },
{ "type": "Feature", "properties": { "name": "JR 富浦駅", "type": "鉄道駅", "city": "南房総市" }, "geometry": { "type": "Point", "coordinates": [ 139.8378, 35.0462 ] } },
{ "type": "Feature", "properties": { "name": "JR 君津駅", "type": "鉄道駅", "city": "君津市" }, "geometry": { "type": "Point", "coordinates": [ 139.8957, 35.3336 ] } },
{ "type": "Feature", "properties": { "name": "JR 東松戸駅", "type": "鉄道駅", "city": "松戸市" }, "geometry": { "type": "Point", "coordinates": [ 139.9439, 35.7705 ] } },
{ "type": "Feature", "properties": { "name": "JR 船橋法典駅", "type": "鉄道駅", "city": "船橋市" }, "geometry": { "type": "Point", "coordinates": [ 139.9667, 35.7305 ] } },
{ "type": "Feature", "properties": { "name": "JR 市川大野駅", "type": "鉄道駅", "city": "市川市" }, "geometry": { "type": "Point", "coordinates": [ 139.9513, 35.7554 ] } },
{ "type": "Feature", "properties": { "name": "JR 新松戸駅", "type": "鉄道駅", "city": "松戸市" }, "geometry": { "type": "Point", "coordinates": [ 139.921, 35.8256 ] } },
{ "type": "Feature", "properties": { "name": "JR 西船橋駅", "type": "鉄道駅", "city": "船橋市" }, "geometry": { "type": "Point", "coordinates": [ 139.9595, 35.7072 ] } },
{ "type": "Feature", "properties": { "name": "JR 新八柱駅", "type": "鉄道駅", "city": "松戸市" }, "geometry": { "type": "Point", "coordinates": [ 139.9386, 35.7913 ] } },
{ "type": "Feature", "properties": { "name": "JR 南流山駅", "type": "鉄道駅", "city": "流山市" }, "geometry": { "type": "Point", "coordinates": [ 139.9042, 35.8378 ] } },
{ "type": "Feature", "properties": { "name": "東武アーバンパークライン 柏駅", "type": "鉄道駅", "city": "柏市" }, "geometry": { "type": "Point", "coordinates": [ 139.9705, 35.862 ] } },
{ "type": "Feature", "properties": { "name": "東武アーバンパークライン 馬込沢駅", "type": "鉄道駅", "city": "船橋市" }, "geometry": { "type": "Point", "coordinates": [ 139.9922, 35.7417 ] } },
{ "type": "Feature", "properties": { "name": "東武アーバンパークライン 増尾駅", "type": "鉄道駅", "city": "柏市" }, "geometry": { "type": "Point", "coordinates": [ 139.9763, 35.8298 ] } },
{ "type": "Feature", "properties": { "name": "東武アーバンパークライン 鎌ヶ谷駅", "type": "鉄道駅", "city": "鎌ケ谷市" }, "geometry": { "type": "Point", "coordinates": [ 139.9973, 35.7638 ] } },
{ "type": "Feature", "properties": { "name": "東武アーバンパークライン 逆井駅", "type": "鉄道駅", "city": "柏市" }, "geometry": { "type": "Point", "coordinates": [ 139.9837, 35.8233 ] } },
{ "type": "Feature", "properties": { "name": "東武アーバンパークライン 六実駅", "type": "鉄道駅", "city": "松戸市" }, "geometry": { "type": "Point", "coordinates": [ 139.9992, 35.7937 ] } },
{ "type": "Feature", "properties": { "name": "東武アーバンパークライン 高柳駅", "type": "鉄道駅", "city": "柏市" }, "geometry": { "type": "Point", "coordinates": [ 139.999, 35.8083 ] } },
{ "type": "Feature", "properties": { "name": "東武アーバンパークライン 塚田駅", "type": "鉄道駅", "city": "船橋市" }, "geometry": { "type": "Point", "coordinates": [ 139.9829, 35.7221 ] } },
{ "type": "Feature", "properties": { "name": "東武アーバンパークライン 新船橋駅", "type": "鉄道駅", "city": "船橋市" }, "geometry": { "type": "Point", "coordinates": [ 139.9798, 35.7116 ] } },
{ "type": "Feature", "properties": { "name": "東武アーバンパークライン 新柏駅", "type": "鉄道駅", "city": "柏市" }, "geometry": { "type": "Point", "coordinates": [ 139.967, 35.8381 ] } },
{ "type": "Feature", "properties": { "name": "東武アーバンパークライン 船橋駅", "type": "鉄道駅", "city": "船橋市" }, "geometry": { "type": "Point", "coordinates": [ 139.9844, 35.7021 ] } },
{ "type": "Feature", "properties": { "name": "東武アーバンパークライン 流山おおたかの森駅", "type": "鉄道駅", "city": "流山市" }, "geometry": { "type": "Point", "coordinates": [ 139.9258, 35.8721 ] } },
{ "type": "Feature", "properties": { "name": "東武アーバンパークライン 豊四季駅", "type": "鉄道駅", "city": "柏市" }, "geometry": { "type": "Point", "coordinates": [ 139.9393, 35.8665 ] } },
{ "type": "Feature", "properties": { "name": "東武アーバンパークライン 七光台駅", "type": "鉄道駅", "city": "野田市" }, "geometry": { "type": "Point", "coordinates": [ 139.853, 35.9709 ] } },
{ "type": "Feature", "properties": { "name": "東武アーバンパークライン 梅郷駅", "type": "鉄道駅", "city": "野田市" }, "geometry": { "type": "Point", "coordinates": [ 139.8911, 35.9316 ] } },
{ "type": "Feature", "properties": { "name": "東武アーバンパークライン 運河駅", "type": "鉄道駅", "city": "流山市" }, "geometry": { "type": "Point", "coordinates": [ 139.906, 35.9144 ] } },
{ "type": "Feature", "properties": { "name": "東武アーバンパークライン 川間駅", "type": "鉄道駅", "city": "野田市" }, "geometry": { "type": "Point", "coordinates": [ 139.8345, 35.9792 ] } },
{ "type": "Feature", "properties": { "name": "東武アーバンパークライン 清水公園駅", "type": "鉄道駅", "city": "野田市" }, "geometry": { "type": "Point", "coordinates": [ 139.8603, 35.9588 ] } },
{ "type": "Feature", "properties": { "name": "東武アーバンパークライン 初石駅", "type": "鉄道駅", "city": "流山市" }, "geometry": { "type": "Point", "coordinates": [ 139.9179, 35.8838 ] } },
{ "type": "Feature", "properties": { "name": "東武アーバンパークライン 野田市駅", "type": "鉄道駅", "city": "野田市" }, "geometry": { "type": "Point", "coordinates": [ 139.8708, 35.9438 ] } },
{ "type": "Feature", "properties": { "name": "東武アーバンパークライン 愛宕駅", "type": "鉄道駅", "city": "野田市" }, "geometry": { "type": "Point", "coordinates": [ 139.8646, 35.9506 ] } },
{ "type": "Feature", "properties": { "name": "東武アーバンパークライン 江戸川台駅", "type": "鉄道駅", "city": "流山市" }, "geometry": { "type": "Point", "coordinates": [ 139.9105, 35.8972 ] } },
{ "type": "Feature", "properties": { "name": "東葉高速線 西船橋駅", "type": "鉄道駅", "city": "船橋市" }, "geometry": { "type": "Point", "coordinates": [ 139.9588, 35.7073 ] } },
{ "type": "Feature", "properties": { "name": "東葉高速線 飯山満駅", "type": "鉄道駅", "city": "船橋市" }, "geometry": { "type": "Point", "coordinates": [ 140.0223, 35.714 ] } },
{ "type": "Feature", "properties": { "name": "東葉高速線 東海神駅", "type": "鉄道駅", "city": "船橋市" }, "geometry": { "type": "Point", "coordinates": [ 139.9806, 35.706 ] } },
{ "type": "Feature", "properties": { "name": "東葉高速線 東葉勝田台駅", "type": "鉄道駅", "city": "八千代市" }, "geometry": { "type": "Point", "coordinates": [ 140.1257, 35.7167 ] } },
{ "type": "Feature", "properties": { "name": "東葉高速線 船橋日大前駅", "type": "鉄道駅", "city": "船橋市" }, "geometry": { "type": "Point", "coordinates": [ 140.0601, 35.7272 ] } },
{ "type": "Feature", "properties": { "name": "東葉高速線 八千代中央駅", "type": "鉄道駅", "city": "八千代市" }, "geometry": { "type": "Point", "coordinates": [ 140.1033, 35.7279 ] } },
{ "type": "Feature", "properties": { "name": "東葉高速線 村上駅", "type": "鉄道駅", "city": "八千代市" }, "geometry": { "type": "Point", "coordinates": [ 140.1186, 35.7238 ] } },
{ "type": "Feature", "properties": { "name": "東葉高速線 北習志野駅", "type": "鉄道駅", "city": "船橋市" }, "geometry": { "type": "Point", "coordinates": [ 140.0424, 35.7217 ] } },
{ "type": "Feature", "properties": { "name": "東葉高速線 八千代緑が丘駅", "type": "鉄道駅", "city": "八千代市" }, "geometry": { "type": "Point", "coordinates": [ 140.0732, 35.7289 ] } },
{ "type": "Feature", "properties": { "name": "北総線 白井駅", "type": "鉄道駅", "city": "白井市" }, "geometry": { "type": "Point", "coordinates": [ 140.054, 35.7847 ] } },
{ "type": "Feature", "properties": { "name": "北総線 秋山駅", "type": "鉄道駅", "city": "松戸市" }, "geometry": { "type": "Point", "coordinates": [ 139.9313, 35.7654 ] } },
{ "type": "Feature", "properties": { "name": "北総線 大町駅", "type": "鉄道駅", "city": "市川市" }, "geometry": { "type": "Point", "coordinates": [ 139.9734, 35.7752 ] } },
{ "type": "Feature", "properties": { "name": "北総線 小室駅", "type": "鉄道駅", "city": "船橋市" }, "geometry": { "type": "Point", "coordinates": [ 140.076, 35.787 ] } },
{ "type": "Feature", "properties": { "name": "北総線 印旛日本医大駅", "type": "鉄道駅", "city": "印西市" }, "geometry": { "type": "Point", "coordinates": [ 140.2028, 35.7878 ] } },
{ "type": "Feature", "properties": { "name": "北総線 印西牧の原駅", "type": "鉄道駅", "city": "印西市" }, "geometry": { "type": "Point", "coordinates": [ 140.1671, 35.8036 ] } },
{ "type": "Feature", "properties": { "name": "北総線 東松戸駅", "type": "鉄道駅", "city": "松戸市" }, "geometry": { "type": "Point", "coordinates": [ 139.943, 35.77 ] } },
{ "type": "Feature", "properties": { "name": "北総線 千葉ニュータウン中央駅", "type": "鉄道駅", "city": "印西市" }, "geometry": { "type": "Point", "coordinates": [ 140.1162, 35.8002 ] } },
{ "type": "Feature", "properties": { "name": "北総線 新鎌ヶ谷駅", "type": "鉄道駅", "city": "鎌ケ谷市" }, "geometry": { "type": "Point", "coordinates": [ 139.9984, 35.7796 ] } },
{ "type": "Feature", "properties": { "name": "北総線 松飛台駅", "type": "鉄道駅", "city": "松戸市" }, "geometry": { "type": "Point", "coordinates": [ 139.9576, 35.7753 ] } },
{ "type": "Feature", "properties": { "name": "北総線 西白井駅", "type": "鉄道駅", "city": "白井市" }, "geometry": { "type": "Point", "coordinates": [ 140.0317, 35.7844 ] } },
{ "type": "Feature", "properties": { "name": "北総線 北国分駅", "type": "鉄道駅", "city": "市川市" }, "geometry": { "type": "Point", "coordinates": [ 139.9142, 35.7629 ] } },
{ "type": "Feature", "properties": { "name": "北総線 矢切駅", "type": "鉄道駅", "city": "松戸市" }, "geometry": { "type": "Point", "coordinates": [ 139.9006, 35.7575 ] } },
{ "type": "Feature", "properties": { "name": "東武アーバンパークライン 新鎌ヶ谷駅", "type": "鉄道駅", "city": "鎌ケ谷市" }, "geometry": { "type": "Point", "coordinates": [ 139.9995, 35.7808 ] } },
{ "type": "Feature", "properties": { "name": "いすみ鉄道 城見ヶ丘駅", "type": "鉄道駅", "city": "大多喜町" }, "geometry": { "type": "Point", "coordinates": [ 140.2525, 35.2917 ] } },
{ "type": "Feature", "properties": { "name": "京成電鉄 成田湯川駅", "type": "鉄道駅", "city": "成田市" }, "geometry": { "type": "Point", "coordinates": [ 140.2915, 35.7996 ] } },
{ "type": "Feature", "properties": { "name": "京成電鉄 成田空港駅", "type": "鉄道駅", "city": "成田市" }, "geometry": { "type": "Point", "coordinates": [ 140.3863, 35.7657 ] } },
{ "type": "Feature", "properties": { "name": "京成電鉄 空港第2ビル駅", "type": "鉄道駅", "city": "成田市" }, "geometry": { "type": "Point", "coordinates": [ 140.3876, 35.773 ] } },
{ "type": "Feature", "properties": { "name": "京成電鉄 印旛日本医大駅", "type": "鉄道駅", "city": "印西市" }, "geometry": { "type": "Point", "coordinates": [ 140.2028, 35.7878 ] } },
{ "type": "Feature", "properties": { "name": "京成電鉄 千葉ニュータウン中央駅", "type": "鉄道駅", "city": "印西市" }, "geometry": { "type": "Point", "coordinates": [ 140.1162, 35.8002 ] } },
{ "type": "Feature", "properties": { "name": "京成電鉄 新鎌ヶ谷駅", "type": "鉄道駅", "city": "鎌ケ谷市" }, "geometry": { "type": "Point", "coordinates": [ 139.9984, 35.7796 ] } },
{ "type": "Feature", "properties": { "name": "京成電鉄 東松戸駅", "type": "鉄道駅", "city": "松戸市" }, "geometry": { "type": "Point", "coordinates": [ 139.943, 35.77 ] } },
{ "type": "Feature", "properties": { "name": "千葉神社", "type": "観光資源", "city": "千葉市" }, "geometry": { "type": "Point", "coordinates": [ 140.1237, 35.6119 ] } },
{ "type": "Feature", "properties": { "name": "千葉市科学館", "type": "観光資源", "city": "千葉市" }, "geometry": { "type": "Point", "coordinates": [ 140.1227, 35.6074 ] } },
{ "type": "Feature", "properties": { "name": "千葉ポートタワー", "type": "観光資源", "city": "千葉市" }, "geometry": { "type": "Point", "coordinates": [ 140.1, 35.599 ] } },
{ "type": "Feature", "properties": { "name": "千葉県立中央博物館", "type": "観光資源", "city": "千葉市" }, "geometry": { "type": "Point", "coordinates": [ 140.1385, 35.5998 ] } },
{ "type": "Feature", "properties": { "name": "千葉県立美術館", "type": "観光資源", "city": "千葉市" }, "geometry": { "type": "Point", "coordinates": [ 140.1009, 35.6011 ] } },
{ "type": "Feature", "properties": { "name": "千葉市美術館", "type": "観光資源", "city": "千葉市" }, "geometry": { "type": "Point", "coordinates": [ 140.1246, 35.609 ] } },
{ "type": "Feature", "properties": { "name": "千葉市立郷土博物館", "type": "観光資源", "city": "千葉市" }, "geometry": { "type": "Point", "coordinates": [ 140.1272, 35.6046 ] } },
{ "type": "Feature", "properties": { "name": "千葉県文化会館", "type": "観光資源", "city": "千葉市" }, "geometry": { "type": "Point", "coordinates": [ 140.1271, 35.6032 ] } },
{ "type": "Feature", "properties": { "name": "千葉市民会館", "type": "観光資源", "city": "千葉市" }, "geometry": { "type": "Point", "coordinates": [ 140.1203, 35.6154 ] } },
{ "type": "Feature", "properties": { "name": "フクダ電子アリーナ", "type": "観光資源", "city": "千葉市" }, "geometry": { "type": "Point", "coordinates": [ 140.1229, 35.5775 ] } },
{ "type": "Feature", "properties": { "name": "千葉市文化センター", "type": "観光資源", "city": "千葉市" }, "geometry": { "type": "Point", "coordinates": [ 140.1219, 35.6097 ] } },
{ "type": "Feature", "properties": { "name": "稲毛浅間神社", "type": "観光資源", "city": "千葉市" }, "geometry": { "type": "Point", "coordinates": [ 140.0824, 35.6367 ] } },
{ "type": "Feature", "properties": { "name": "千葉県総合スポーツセンター", "type": "観光資源", "city": "千葉市" }, "geometry": { "type": "Point", "coordinates": [ 140.122, 35.6495 ] } },
{ "type": "Feature", "properties": { "name": "千葉市動物公園", "type": "観光資源", "city": "千葉市" }, "geometry": { "type": "Point", "coordinates": [ 140.1255, 35.6444 ] } },
{ "type": "Feature", "properties": { "name": "千葉市立加曽利貝塚博物館", "type": "観光資源", "city": "千葉市" }, "geometry": { "type": "Point", "coordinates": [ 140.1653, 35.6237 ] } },
{ "type": "Feature", "properties": { "name": "若葉文化ホール", "type": "観光資源", "city": "千葉市" }, "geometry": { "type": "Point", "coordinates": [ 140.1865, 35.6219 ] } },
{ "type": "Feature", "properties": { "name": "昭和の森", "type": "観光資源", "city": "千葉市" }, "geometry": { "type": "Point", "coordinates": [ 140.281, 35.5183 ] } },
{ "type": "Feature", "properties": { "name": "平川カントリークラブ", "type": "観光資源", "city": "千葉市" }, "geometry": { "type": "Point", "coordinates": [ 140.2535, 35.553 ] } },
{ "type": "Feature", "properties": { "name": "三井アウトレットパーク幕張", "type": "観光資源", "city": "千葉市" }, "geometry": { "type": "Point", "coordinates": [ 140.0396, 35.6467 ] } },
{ "type": "Feature", "properties": { "name": "稲毛海浜公園プール", "type": "観光資源", "city": "千葉市" }, "geometry": { "type": "Point", "coordinates": [ 140.0673, 35.6146 ] } },
{ "type": "Feature", "properties": { "name": "アクアリンクちば", "type": "観光資源", "city": "千葉市" }, "geometry": { "type": "Point", "coordinates": [ 140.0713, 35.6111 ] } },
{ "type": "Feature", "properties": { "name": "千葉市花の美術館", "type": "観光資源", "city": "千葉市" }, "geometry": { "type": "Point", "coordinates": [ 140.0648, 35.6182 ] } },
{ "type": "Feature", "properties": { "name": "稲毛記念館", "type": "観光資源", "city": "千葉市" }, "geometry": { "type": "Point", "coordinates": [ 140.0608, 35.6198 ] } },
{ "type": "Feature", "properties": { "name": "稲毛民間航空記念館", "type": "観光資源", "city": "千葉市" }, "geometry": { "type": "Point", "coordinates": [ 140.06, 35.6209 ] } },
{ "type": "Feature", "properties": { "name": "稲毛サイクリングセンター", "type": "観光資源", "city": "千葉市" }, "geometry": { "type": "Point", "coordinates": [ 140.0537, 35.6245 ] } },
{ "type": "Feature", "properties": { "name": "ＱＶＣマリンフィールド", "type": "観光資源", "city": "千葉市" }, "geometry": { "type": "Point", "coordinates": [ 140.0308, 35.6453 ] } },
{ "type": "Feature", "properties": { "name": "幕張メッセ（国際会議場）", "type": "観光資源", "city": "千葉市" }, "geometry": { "type": "Point", "coordinates": [ 140.0367, 35.6468 ] } },
{ "type": "Feature", "properties": { "name": "美浜文化ホール", "type": "観光資源", "city": "千葉市" }, "geometry": { "type": "Point", "coordinates": [ 140.0626, 35.6411 ] } },
{ "type": "Feature", "properties": { "name": "満願寺", "type": "観光資源", "city": "銚子市" }, "geometry": { "type": "Point", "coordinates": [ 140.8568, 35.7058 ] } },
{ "type": "Feature", "properties": { "name": "犬吠埼灯台", "type": "観光資源", "city": "銚子市" }, "geometry": { "type": "Point", "coordinates": [ 140.8684, 35.7079 ] } },
{ "type": "Feature", "properties": { "name": "地球の丸く見える丘展望館", "type": "観光資源", "city": "銚子市" }, "geometry": { "type": "Point", "coordinates": [ 140.8536, 35.7064 ] } },
{ "type": "Feature", "properties": { "name": "犬吠埼マリンパーク", "type": "観光資源", "city": "銚子市" }, "geometry": { "type": "Point", "coordinates": [ 140.8654, 35.7072 ] } },
{ "type": "Feature", "properties": { "name": "銚子ポートタワー", "type": "観光資源", "city": "銚子市" }, "geometry": { "type": "Point", "coordinates": [ 140.8629, 35.741 ] } },
{ "type": "Feature", "properties": { "name": "飯沼観音", "type": "観光資源", "city": "銚子市" }, "geometry": { "type": "Point", "coordinates": [ 140.8406, 35.7319 ] } },
{ "type": "Feature", "properties": { "name": "ヒゲタ醤油工場", "type": "観光資源", "city": "銚子市" }, "geometry": { "type": "Point", "coordinates": [ 140.8169, 35.7299 ] } },
{ "type": "Feature", "properties": { "name": "ヤマサ醤油工場", "type": "観光資源", "city": "銚子市" }, "geometry": { "type": "Point", "coordinates": [ 140.8333, 35.728 ] } },
{ "type": "Feature", "properties": { "name": "銚子マリーナ", "type": "観光資源", "city": "銚子市" }, "geometry": { "type": "Point", "coordinates": [ 140.8407, 35.7043 ] } },
{ "type": "Feature", "properties": { "name": "銚子漁港魚市場", "type": "観光資源", "city": "銚子市" }, "geometry": { "type": "Point", "coordinates": [ 140.8619, 35.7435 ] } },
{ "type": "Feature", "properties": { "name": "外川ミニ郷土資料館", "type": "観光資源", "city": "銚子市" }, "geometry": { "type": "Point", "coordinates": [ 140.8563, 35.6991 ] } },
{ "type": "Feature", "properties": { "name": "長崎海水浴場", "type": "観光資源", "city": "銚子市" }, "geometry": { "type": "Point", "coordinates": [ 140.8631, 35.6975 ] } },
{ "type": "Feature", "properties": { "name": "海鹿島海水浴場", "type": "観光資源", "city": "銚子市" }, "geometry": { "type": "Point", "coordinates": [ 140.8684, 35.7244 ] } },
{ "type": "Feature", "properties": { "name": "天然温泉　法典の湯", "type": "観光資源", "city": "市川市" }, "geometry": { "type": "Point", "coordinates": [ 139.9644, 35.7355 ] } },
{ "type": "Feature", "properties": { "name": "中山法華経寺", "type": "観光資源", "city": "市川市" }, "geometry": { "type": "Point", "coordinates": [ 139.9494, 35.7209 ] } },
{ "type": "Feature", "properties": { "name": "市川市動植物園", "type": "観光資源", "city": "市川市" }, "geometry": { "type": "Point", "coordinates": [ 139.9693, 35.7679 ] } },
{ "type": "Feature", "properties": { "name": "県立現代産業科学館", "type": "観光資源", "city": "市川市" }, "geometry": { "type": "Point", "coordinates": [ 139.9327, 35.7149 ] } },
{ "type": "Feature", "properties": { "name": "里見公園", "type": "観光資源", "city": "市川市" }, "geometry": { "type": "Point", "coordinates": [ 139.8986, 35.7476 ] } },
{ "type": "Feature", "properties": { "name": "市川市自然博物館", "type": "観光資源", "city": "市川市" }, "geometry": { "type": "Point", "coordinates": [ 139.966, 35.7643 ] } },
{ "type": "Feature", "properties": { "name": "市川市アイ・リンクタウン展望施設", "type": "観光資源", "city": "市川市" }, "geometry": { "type": "Point", "coordinates": [ 139.9061, 35.7291 ] } },
{ "type": "Feature", "properties": { "name": "東山魁夷記念館", "type": "観光資源", "city": "市川市" }, "geometry": { "type": "Point", "coordinates": [ 139.9465, 35.7228 ] } },
{ "type": "Feature", "properties": { "name": "市川考古博物館", "type": "観光資源", "city": "市川市" }, "geometry": { "type": "Point", "coordinates": [ 139.9121, 35.759 ] } },
{ "type": "Feature", "properties": { "name": "市川歴史博物館", "type": "観光資源", "city": "市川市" }, "geometry": { "type": "Point", "coordinates": [ 139.9115, 35.7598 ] } },
{ "type": "Feature", "properties": { "name": "行徳野鳥観察舎", "type": "観光資源", "city": "市川市" }, "geometry": { "type": "Point", "coordinates": [ 139.9158, 35.6685 ] } },
{ "type": "Feature", "properties": { "name": "ふなばしアンデルセン公園", "type": "観光資源", "city": "船橋市" }, "geometry": { "type": "Point", "coordinates": [ 140.0598, 35.7585 ] } },
{ "type": "Feature", "properties": { "name": "ふなばし三番瀬海浜公園", "type": "観光資源", "city": "船橋市" }, "geometry": { "type": "Point", "coordinates": [ 139.9675, 35.6725 ] } },
{ "type": "Feature", "properties": { "name": "サッポロビール千葉工場", "type": "観光資源", "city": "船橋市" }, "geometry": { "type": "Point", "coordinates": [ 139.9912, 35.6674 ] } },
{ "type": "Feature", "properties": { "name": "館山市立博物館", "type": "観光資源", "city": "館山市" }, "geometry": { "type": "Point", "coordinates": [ 139.8545, 34.9825 ] } },
{ "type": "Feature", "properties": { "name": "海軍航空隊赤山地下壕跡", "type": "観光資源", "city": "館山市" }, "geometry": { "type": "Point", "coordinates": [ 139.8426, 34.9823 ] } },
{ "type": "Feature", "properties": { "name": "海ほたる", "type": "観光資源", "city": "木更津市" }, "geometry": { "type": "Point", "coordinates": [ 139.9185, 35.4348 ] } },
{ "type": "Feature", "properties": { "name": "アクアわくわく市場", "type": "観光資源", "city": "木更津市" }, "geometry": { "type": "Point", "coordinates": [ 139.9218, 35.4321 ] } },
{ "type": "Feature", "properties": { "name": "龍宮城スパホテル三日月", "type": "観光資源", "city": "木更津市" }, "geometry": { "type": "Point", "coordinates": [ 139.8976, 35.4212 ] } },
{ "type": "Feature", "properties": { "name": "八剱八幡神社", "type": "観光資源", "city": "木更津市" }, "geometry": { "type": "Point", "coordinates": [ 139.9235, 35.3812 ] } },
{ "type": "Feature", "properties": { "name": "矢切の渡し", "type": "観光資源", "city": "松戸市" }, "geometry": { "type": "Point", "coordinates": [ 139.8838, 35.7595 ] } },
{ "type": "Feature", "properties": { "name": "本土寺", "type": "観光資源", "city": "松戸市" }, "geometry": { "type": "Point", "coordinates": [ 139.9286, 35.8404 ] } },
{ "type": "Feature", "properties": { "name": "戸定歴史館", "type": "観光資源", "city": "松戸市" }, "geometry": { "type": "Point", "coordinates": [ 139.8995, 35.7779 ] } },
{ "type": "Feature", "properties": { "name": "野天風呂湯の郷", "type": "観光資源", "city": "野田市" }, "geometry": { "type": "Point", "coordinates": [ 139.8948, 35.9234 ] } },
{ "type": "Feature", "properties": { "name": "清水公園", "type": "観光資源", "city": "野田市" }, "geometry": { "type": "Point", "coordinates": [ 139.854, 35.9583 ] } },
{ "type": "Feature", "properties": { "name": "源泉七光台温泉", "type": "観光資源", "city": "野田市" }, "geometry": { "type": "Point", "coordinates": [ 139.8498, 35.9824 ] } },
{ "type": "Feature", "properties": { "name": "千葉県立関宿城博物館", "type": "観光資源", "city": "野田市" }, "geometry": { "type": "Point", "coordinates": [ 139.7826, 36.1005 ] } },
{ "type": "Feature", "properties": { "name": "森の遊園地", "type": "観光資源", "city": "野田市" }, "geometry": { "type": "Point", "coordinates": [ 139.8792, 35.948 ] } },
{ "type": "Feature", "properties": { "name": "もの知りしょうゆ館", "type": "観光資源", "city": "野田市" }, "geometry": { "type": "Point", "coordinates": [ 139.87, 35.9411 ] } },
{ "type": "Feature", "properties": { "name": "クリアビューゴルフクラブ", "type": "観光資源", "city": "野田市" }, "geometry": { "type": "Point", "coordinates": [ 139.9352, 35.9391 ] } },
{ "type": "Feature", "properties": { "name": "野田市郷土博物館", "type": "観光資源", "city": "野田市" }, "geometry": { "type": "Point", "coordinates": [ 139.8654, 35.9454 ] } },
{ "type": "Feature", "properties": { "name": "成田山新勝寺", "type": "観光資源", "city": "成田市" }, "geometry": { "type": "Point", "coordinates": [ 140.3183, 35.786 ] } },
{ "type": "Feature", "properties": { "name": "宗吾霊堂", "type": "観光資源", "city": "成田市" }, "geometry": { "type": "Point", "coordinates": [ 140.2795, 35.761 ] } },
{ "type": "Feature", "properties": { "name": "成田ゆめ牧場", "type": "観光資源", "city": "成田市" }, "geometry": { "type": "Point", "coordinates": [ 140.3967, 35.8694 ] } },
{ "type": "Feature", "properties": { "name": "米屋観光センター", "type": "観光資源", "city": "成田市" }, "geometry": { "type": "Point", "coordinates": [ 140.3202, 35.7828 ] } },
{ "type": "Feature", "properties": { "name": "成田観光館", "type": "観光資源", "city": "成田市" }, "geometry": { "type": "Point", "coordinates": [ 140.3164, 35.7836 ] } },
{ "type": "Feature", "properties": { "name": "千葉県花植木センター", "type": "観光資源", "city": "成田市" }, "geometry": { "type": "Point", "coordinates": [ 140.3941, 35.7919 ] } },
{ "type": "Feature", "properties": { "name": "成田山書道美術館", "type": "観光資源", "city": "成田市" }, "geometry": { "type": "Point", "coordinates": [ 140.3221, 35.7875 ] } },
{ "type": "Feature", "properties": { "name": "小御門神社", "type": "観光資源", "city": "成田市" }, "geometry": { "type": "Point", "coordinates": [ 140.3587, 35.8558 ] } },
{ "type": "Feature", "properties": { "name": "宗吾御一代記念館", "type": "観光資源", "city": "成田市" }, "geometry": { "type": "Point", "coordinates": [ 140.2792, 35.7622 ] } },
{ "type": "Feature", "properties": { "name": "国立歴史民俗博物館", "type": "観光資源", "city": "佐倉市" }, "geometry": { "type": "Point", "coordinates": [ 140.2191, 35.7244 ] } },
{ "type": "Feature", "properties": { "name": "佐倉ふるさと広場", "type": "観光資源", "city": "佐倉市" }, "geometry": { "type": "Point", "coordinates": [ 140.2027, 35.7404 ] } },
{ "type": "Feature", "properties": { "name": "草ぶえの丘", "type": "観光資源", "city": "佐倉市" }, "geometry": { "type": "Point", "coordinates": [ 140.2137, 35.7475 ] } },
{ "type": "Feature", "properties": { "name": "佐倉市立美術館", "type": "観光資源", "city": "佐倉市" }, "geometry": { "type": "Point", "coordinates": [ 140.2296, 35.7192 ] } },
{ "type": "Feature", "properties": { "name": "佐倉武家屋敷", "type": "観光資源", "city": "佐倉市" }, "geometry": { "type": "Point", "coordinates": [ 140.225, 35.7167 ] } },
{ "type": "Feature", "properties": { "name": "旧堀田邸（さくら庭園）", "type": "観光資源", "city": "佐倉市" }, "geometry": { "type": "Point", "coordinates": [ 140.2359, 35.714 ] } },
{ "type": "Feature", "properties": { "name": "佐倉新町おはやし館", "type": "観光資源", "city": "佐倉市" }, "geometry": { "type": "Point", "coordinates": [ 140.2318, 35.7194 ] } },
{ "type": "Feature", "properties": { "name": "佐倉順天堂記念館", "type": "観光資源", "city": "佐倉市" }, "geometry": { "type": "Point", "coordinates": [ 140.2427, 35.7185 ] } },
{ "type": "Feature", "properties": { "name": "歴史生活資料館", "type": "観光資源", "city": "佐倉市" }, "geometry": { "type": "Point", "coordinates": [ 140.233, 35.7195 ] } },
{ "type": "Feature", "properties": { "name": "東金緑花木センター", "type": "観光資源", "city": "東金市" }, "geometry": { "type": "Point", "coordinates": [ 140.3825, 35.5776 ] } },
{ "type": "Feature", "properties": { "name": "東金ぶどう郷", "type": "観光資源", "city": "東金市" }, "geometry": { "type": "Point", "coordinates": [ 140.3519, 35.5819 ] } },
{ "type": "Feature", "properties": { "name": "東金青少年自然の家", "type": "観光資源", "city": "東金市" }, "geometry": { "type": "Point", "coordinates": [ 140.3723, 35.5765 ] } },
{ "type": "Feature", "properties": { "name": "飯岡刑部岬展望館〜光と風〜", "type": "観光資源", "city": "旭市" }, "geometry": { "type": "Point", "coordinates": [ 140.7393, 35.6934 ] } },
{ "type": "Feature", "properties": { "name": "いいおかみなと公園", "type": "観光資源", "city": "旭市" }, "geometry": { "type": "Point", "coordinates": [ 140.7284, 35.6926 ] } },
{ "type": "Feature", "properties": { "name": "飯岡海水浴場", "type": "観光資源", "city": "旭市" }, "geometry": { "type": "Point", "coordinates": [ 140.702, 35.7009 ] } },
{ "type": "Feature", "properties": { "name": "鎌数伊勢大神宮", "type": "観光資源", "city": "旭市" }, "geometry": { "type": "Point", "coordinates": [ 140.6214, 35.7248 ] } },
{ "type": "Feature", "properties": { "name": "矢指ケ浦海水浴場", "type": "観光資源", "city": "旭市" }, "geometry": { "type": "Point", "coordinates": [ 140.666, 35.6921 ] } },
{ "type": "Feature", "properties": { "name": "千葉県国際総合水泳場", "type": "観光資源", "city": "習志野市" }, "geometry": { "type": "Point", "coordinates": [ 140.0113, 35.6669 ] } },
{ "type": "Feature", "properties": { "name": "谷津バラ園", "type": "観光資源", "city": "習志野市" }, "geometry": { "type": "Point", "coordinates": [ 140.0055, 35.6807 ] } },
{ "type": "Feature", "properties": { "name": "谷津干潟自然観察センター", "type": "観光資源", "city": "習志野市" }, "geometry": { "type": "Point", "coordinates": [ 140.0055, 35.6753 ] } },
{ "type": "Feature", "properties": { "name": "旧鴇田家住宅", "type": "観光資源", "city": "習志野市" }, "geometry": { "type": "Point", "coordinates": [ 140.065, 35.6843 ] } },
{ "type": "Feature", "properties": { "name": "習志野文化ホール", "type": "観光資源", "city": "習志野市" }, "geometry": { "type": "Point", "coordinates": [ 140.0192, 35.6895 ] } },
{ "type": "Feature", "properties": { "name": "道の駅しょうなん", "type": "観光資源", "city": "柏市" }, "geometry": { "type": "Point", "coordinates": [ 140.0234, 35.8578 ] } },
{ "type": "Feature", "properties": { "name": "県立柏の葉公園", "type": "観光資源", "city": "柏市" }, "geometry": { "type": "Point", "coordinates": [ 139.9414, 35.8949 ] } },
{ "type": "Feature", "properties": { "name": "藤ヶ谷カントリークラブ", "type": "観光資源", "city": "柏市" }, "geometry": { "type": "Point", "coordinates": [ 140.0283, 35.8291 ] } },
{ "type": "Feature", "properties": { "name": "手賀沼フィッシングセンター", "type": "観光資源", "city": "柏市" }, "geometry": { "type": "Point", "coordinates": [ 140.0658, 35.852 ] } },
{ "type": "Feature", "properties": { "name": "柏の葉競技場", "type": "観光資源", "city": "柏市" }, "geometry": { "type": "Point", "coordinates": [ 139.9362, 35.8978 ] } },
{ "type": "Feature", "properties": { "name": "勝浦海中公園センター", "type": "観光資源", "city": "勝浦市" }, "geometry": { "type": "Point", "coordinates": [ 140.2846, 35.1355 ] } },
{ "type": "Feature", "properties": { "name": "海の博物館", "type": "観光資源", "city": "勝浦市" }, "geometry": { "type": "Point", "coordinates": [ 140.2841, 35.1365 ] } },
{ "type": "Feature", "properties": { "name": "一茶双樹記念館", "type": "観光資源", "city": "流山市" }, "geometry": { "type": "Point", "coordinates": [ 139.8961, 35.8501 ] } },
{ "type": "Feature", "properties": { "name": "杜のアトリエ黎明", "type": "観光資源", "city": "流山市" }, "geometry": { "type": "Point", "coordinates": [ 139.8955, 35.8501 ] } },
{ "type": "Feature", "properties": { "name": "道の駅やちよ「八千代ふるさとステーション」", "type": "観光資源", "city": "八千代市" }, "geometry": { "type": "Point", "coordinates": [ 140.1067, 35.7583 ] } },
{ "type": "Feature", "properties": { "name": "京成バラ園", "type": "観光資源", "city": "八千代市" }, "geometry": { "type": "Point", "coordinates": [ 140.0876, 35.731 ] } },
{ "type": "Feature", "properties": { "name": "千葉県手賀沼親水広場", "type": "観光資源", "city": "我孫子市" }, "geometry": { "type": "Point", "coordinates": [ 140.0294, 35.8611 ] } },
{ "type": "Feature", "properties": { "name": "我孫子市鳥の博物館", "type": "観光資源", "city": "我孫子市" }, "geometry": { "type": "Point", "coordinates": [ 140.0307, 35.8613 ] } },
{ "type": "Feature", "properties": { "name": "鴨川シーワールド", "type": "観光資源", "city": "鴨川市" }, "geometry": { "type": "Point", "coordinates": [ 140.1204, 35.1159 ] } },
{ "type": "Feature", "properties": { "name": "道の駅｢鴨川オーシャンパーク｣", "type": "観光資源", "city": "鴨川市" }, "geometry": { "type": "Point", "coordinates": [ 140.0771, 35.0639 ] } },
{ "type": "Feature", "properties": { "name": "大本山小湊誕生寺", "type": "観光資源", "city": "鴨川市" }, "geometry": { "type": "Point", "coordinates": [ 140.1985, 35.1174 ] } },
{ "type": "Feature", "properties": { "name": "内浦山県民の森", "type": "観光資源", "city": "鴨川市" }, "geometry": { "type": "Point", "coordinates": [ 140.1987, 35.1612 ] } },
{ "type": "Feature", "properties": { "name": "小湊ウオポート", "type": "観光資源", "city": "鴨川市" }, "geometry": { "type": "Point", "coordinates": [ 140.1969, 35.1212 ] } },
{ "type": "Feature", "properties": { "name": "太海フラワー磯釣りセンター", "type": "観光資源", "city": "鴨川市" }, "geometry": { "type": "Point", "coordinates": [ 140.0977, 35.0767 ] } },
{ "type": "Feature", "properties": { "name": "鴨川市総合運動施設", "type": "観光資源", "city": "鴨川市" }, "geometry": { "type": "Point", "coordinates": [ 140.0801, 35.1134 ] } },
{ "type": "Feature", "properties": { "name": "鴨川大山千枚田「棚田倶楽部」", "type": "観光資源", "city": "鴨川市" }, "geometry": { "type": "Point", "coordinates": [ 139.9739, 35.1303 ] } },
{ "type": "Feature", "properties": { "name": "鴨川松島", "type": "観光資源", "city": "鴨川市" }, "geometry": { "type": "Point", "coordinates": [ 140.1092, 35.0909 ] } },
{ "type": "Feature", "properties": { "name": "ファイターズタウン鎌ケ谷", "type": "観光資源", "city": "鎌ケ谷市" }, "geometry": { "type": "Point", "coordinates": [ 139.978, 35.76 ] } },
{ "type": "Feature", "properties": { "name": "鎌ヶ谷カントリー倶楽部", "type": "観光資源", "city": "鎌ケ谷市" }, "geometry": { "type": "Point", "coordinates": [ 139.9827, 35.7696 ] } },
{ "type": "Feature", "properties": { "name": "清和県民の森", "type": "観光資源", "city": "君津市" }, "geometry": { "type": "Point", "coordinates": [ 140.0082, 35.1742 ] } },
{ "type": "Feature", "properties": { "name": "きみつふるさと物産館", "type": "観光資源", "city": "君津市" }, "geometry": { "type": "Point", "coordinates": [ 140.0696, 35.1985 ] } },
{ "type": "Feature", "properties": { "name": "清和自然休養村", "type": "観光資源", "city": "君津市" }, "geometry": { "type": "Point", "coordinates": [ 140.0202, 35.223 ] } },
{ "type": "Feature", "properties": { "name": "君津市森林体験交流センター", "type": "観光資源", "city": "君津市" }, "geometry": { "type": "Point", "coordinates": [ 140.087, 35.292 ] } },
{ "type": "Feature", "properties": { "name": "清和観光農園組合", "type": "観光資源", "city": "君津市" }, "geometry": { "type": "Point", "coordinates": [ 140.0202, 35.223 ] } },
{ "type": "Feature", "properties": { "name": "ロマンの森共和国", "type": "観光資源", "city": "君津市" }, "geometry": { "type": "Point", "coordinates": [ 140.0073, 35.1826 ] } },
{ "type": "Feature", "properties": { "name": "久留里城祉資料館", "type": "観光資源", "city": "君津市" }, "geometry": { "type": "Point", "coordinates": [ 140.0879, 35.2879 ] } },
{ "type": "Feature", "properties": { "name": "和蔵酒造　貞元蔵", "type": "観光資源", "city": "君津市" }, "geometry": { "type": "Point", "coordinates": [ 139.8865, 35.3192 ] } },
{ "type": "Feature", "properties": { "name": "マザー牧場", "type": "観光資源", "city": "富津市" }, "geometry": { "type": "Point", "coordinates": [ 139.935, 35.2461 ] } },
{ "type": "Feature", "properties": { "name": "鋸山ロープウェー", "type": "観光資源", "city": "富津市" }, "geometry": { "type": "Point", "coordinates": [ 139.8233, 35.1622 ] } },
{ "type": "Feature", "properties": { "name": "富津公園", "type": "観光資源", "city": "富津市" }, "geometry": { "type": "Point", "coordinates": [ 139.7945, 35.3123 ] } },
{ "type": "Feature", "properties": { "name": "富津海水浴場", "type": "観光資源", "city": "富津市" }, "geometry": { "type": "Point", "coordinates": [ 139.7975, 35.3101 ] } },
{ "type": "Feature", "properties": { "name": "富津市民の森", "type": "観光資源", "city": "富津市" }, "geometry": { "type": "Point", "coordinates": [ 139.9606, 35.1772 ] } },
{ "type": "Feature", "properties": { "name": "高宕山自然動物園", "type": "観光資源", "city": "富津市" }, "geometry": { "type": "Point", "coordinates": [ 139.9576, 35.188 ] } },
{ "type": "Feature", "properties": { "name": "上総湊海水浴場", "type": "観光資源", "city": "富津市" }, "geometry": { "type": "Point", "coordinates": [ 139.8695, 35.2253 ] } },
{ "type": "Feature", "properties": { "name": "東京ディズニーリゾート", "type": "観光資源", "city": "浦安市" }, "geometry": { "type": "Point", "coordinates": [ 139.8846, 35.6356 ] } },
{ "type": "Feature", "properties": { "name": "舞浜ユーラシア", "type": "観光資源", "city": "浦安市" }, "geometry": { "type": "Point", "coordinates": [ 139.8956, 35.6274 ] } },
{ "type": "Feature", "properties": { "name": "東京ドイツ村", "type": "観光資源", "city": "袖ケ浦市" }, "geometry": { "type": "Point", "coordinates": [ 140.0548, 35.4049 ] } },
{ "type": "Feature", "properties": { "name": "袖ケ浦公園", "type": "観光資源", "city": "袖ケ浦市" }, "geometry": { "type": "Point", "coordinates": [ 139.9922, 35.4192 ] } },
{ "type": "Feature", "properties": { "name": "袖ケ浦市郷土博物館", "type": "観光資源", "city": "袖ケ浦市" }, "geometry": { "type": "Point", "coordinates": [ 139.9954, 35.4213 ] } },
{ "type": "Feature", "properties": { "name": "白井市民プール", "type": "観光資源", "city": "白井市" }, "geometry": { "type": "Point", "coordinates": [ 140.0692, 35.8088 ] } },
{ "type": "Feature", "properties": { "name": "道の駅とみうら「枇杷倶楽部」", "type": "観光資源", "city": "南房総市" }, "geometry": { "type": "Point", "coordinates": [ 139.8371, 35.0377 ] } },
{ "type": "Feature", "properties": { "name": "道の駅　富楽里とみやま", "type": "観光資源", "city": "南房総市" }, "geometry": { "type": "Point", "coordinates": [ 139.8556, 35.1006 ] } },
{ "type": "Feature", "properties": { "name": "道の駅ちくら潮風王国", "type": "観光資源", "city": "南房総市" }, "geometry": { "type": "Point", "coordinates": [ 139.9521, 34.9299 ] } },
{ "type": "Feature", "properties": { "name": "道の駅「三芳村」鄙の里", "type": "観光資源", "city": "南房総市" }, "geometry": { "type": "Point", "coordinates": [ 139.8949, 35.034 ] } },
{ "type": "Feature", "properties": { "name": "道の駅「ロ－ズマリ－公園」", "type": "観光資源", "city": "南房総市" }, "geometry": { "type": "Point", "coordinates": [ 139.9753, 35.0087 ] } },
{ "type": "Feature", "properties": { "name": "大房岬", "type": "観光資源", "city": "南房総市" }, "geometry": { "type": "Point", "coordinates": [ 139.8128, 35.0389 ] } },
{ "type": "Feature", "properties": { "name": "道の駅おおつの里「花倶楽部」", "type": "観光資源", "city": "南房総市" }, "geometry": { "type": "Point", "coordinates": [ 139.8604, 35.0577 ] } },
{ "type": "Feature", "properties": { "name": "野島埼灯台", "type": "観光資源", "city": "南房総市" }, "geometry": { "type": "Point", "coordinates": [ 139.8883, 34.9018 ] } },
{ "type": "Feature", "properties": { "name": "岩井海水浴場", "type": "観光資源", "city": "南房総市" }, "geometry": { "type": "Point", "coordinates": [ 139.8396, 35.0956 ] } },
{ "type": "Feature", "properties": { "name": "千葉県酪農のさと", "type": "観光資源", "city": "南房総市" }, "geometry": { "type": "Point", "coordinates": [ 139.9905, 35.1057 ] } },
{ "type": "Feature", "properties": { "name": "塩浦海水浴場", "type": "観光資源", "city": "南房総市" }, "geometry": { "type": "Point", "coordinates": [ 139.9186, 34.9094 ] } },
{ "type": "Feature", "properties": { "name": "道の駅白浜野島崎", "type": "観光資源", "city": "南房総市" }, "geometry": { "type": "Point", "coordinates": [ 139.8774, 34.9062 ] } },
{ "type": "Feature", "properties": { "name": "瀬戸浜海水浴場", "type": "観光資源", "city": "南房総市" }, "geometry": { "type": "Point", "coordinates": [ 139.9668, 34.9803 ] } },
{ "type": "Feature", "properties": { "name": "白浜フラワーパーク", "type": "観光資源", "city": "南房総市" }, "geometry": { "type": "Point", "coordinates": [ 139.8288, 34.9108 ] } },
{ "type": "Feature", "properties": { "name": "花の広場公園「花夢花夢」", "type": "観光資源", "city": "南房総市" }, "geometry": { "type": "Point", "coordinates": [ 140.0232, 35.0448 ] } },
{ "type": "Feature", "properties": { "name": "ふれあいパーク八日市場", "type": "観光資源", "city": "匝瑳市" }, "geometry": { "type": "Point", "coordinates": [ 140.5583, 35.7398 ] } },
{ "type": "Feature", "properties": { "name": "堀川浜海水浴場", "type": "観光資源", "city": "匝瑳市" }, "geometry": { "type": "Point", "coordinates": [ 140.5685, 35.6346 ] } },
{ "type": "Feature", "properties": { "name": "香取神宮", "type": "観光資源", "city": "香取市" }, "geometry": { "type": "Point", "coordinates": [ 140.5289, 35.8862 ] } },
{ "type": "Feature", "properties": { "name": "道の駅くりもと「紅小町の郷」", "type": "観光資源", "city": "香取市" }, "geometry": { "type": "Point", "coordinates": [ 140.4701, 35.806 ] } },
{ "type": "Feature", "properties": { "name": "水郷佐原水生植物園", "type": "観光資源", "city": "香取市" }, "geometry": { "type": "Point", "coordinates": [ 140.5243, 35.9279 ] } },
{ "type": "Feature", "properties": { "name": "伊能忠敬記念館", "type": "観光資源", "city": "香取市" }, "geometry": { "type": "Point", "coordinates": [ 140.4972, 35.8884 ] } },
{ "type": "Feature", "properties": { "name": "小見川城山公園", "type": "観光資源", "city": "香取市" }, "geometry": { "type": "Point", "coordinates": [ 140.5925, 35.86 ] } },
{ "type": "Feature", "properties": { "name": "水郷佐原山車会館", "type": "観光資源", "city": "香取市" }, "geometry": { "type": "Point", "coordinates": [ 140.5012, 35.8897 ] } },
{ "type": "Feature", "properties": { "name": "香取市民プール", "type": "観光資源", "city": "香取市" }, "geometry": { "type": "Point", "coordinates": [ 140.5244, 35.9308 ] } },
{ "type": "Feature", "properties": { "name": "蓮沼海浜公園", "type": "観光資源", "city": "山武市" }, "geometry": { "type": "Point", "coordinates": [ 140.5092, 35.5936 ] } },
{ "type": "Feature", "properties": { "name": "山武の森公園", "type": "観光資源", "city": "山武市" }, "geometry": { "type": "Point", "coordinates": [ 140.3676, 35.641 ] } },
{ "type": "Feature", "properties": { "name": "蓮沼ウォーターガーデン", "type": "観光資源", "city": "山武市" }, "geometry": { "type": "Point", "coordinates": [ 140.5129, 35.5973 ] } },
{ "type": "Feature", "properties": { "name": "守屋酒造", "type": "観光資源", "city": "山武市" }, "geometry": { "type": "Point", "coordinates": [ 140.4897, 35.598 ] } },
{ "type": "Feature", "properties": { "name": "太東埼灯台", "type": "観光資源", "city": "いすみ市" }, "geometry": { "type": "Point", "coordinates": [ 140.413, 35.3081 ] } },
{ "type": "Feature", "properties": { "name": "酒々井ちびっこ天国", "type": "観光資源", "city": "酒々井町" }, "geometry": { "type": "Point", "coordinates": [ 140.2805, 35.7484 ] } },
{ "type": "Feature", "properties": { "name": "しすいハーブガーデン", "type": "観光資源", "city": "酒々井町" }, "geometry": { "type": "Point", "coordinates": [ 140.2884, 35.7097 ] } },
{ "type": "Feature", "properties": { "name": "千葉県立房総のむら", "type": "観光資源", "city": "栄町" }, "geometry": { "type": "Point", "coordinates": [ 140.2732, 35.823 ] } },
{ "type": "Feature", "properties": { "name": "ドラムの里", "type": "観光資源", "city": "栄町" }, "geometry": { "type": "Point", "coordinates": [ 140.2738, 35.8232 ] } },
{ "type": "Feature", "properties": { "name": "道の駅　多古", "type": "観光資源", "city": "多古町" }, "geometry": { "type": "Point", "coordinates": [ 140.4752, 35.7314 ] } },
{ "type": "Feature", "properties": { "name": "東庄県民の森", "type": "観光資源", "city": "東庄町" }, "geometry": { "type": "Point", "coordinates": [ 140.6757, 35.7824 ] } },
{ "type": "Feature", "properties": { "name": "九十九里ふるさと自然公園", "type": "観光資源", "city": "九十九里町" }, "geometry": { "type": "Point", "coordinates": [ 140.4524, 35.5289 ] } },
{ "type": "Feature", "properties": { "name": "航空科学博物館", "type": "観光資源", "city": "芝山町" }, "geometry": { "type": "Point", "coordinates": [ 140.3978, 35.7404 ] } },
{ "type": "Feature", "properties": { "name": "芝山古墳・はにわ博物館", "type": "観光資源", "city": "芝山町" }, "geometry": { "type": "Point", "coordinates": [ 140.4285, 35.694 ] } },
{ "type": "Feature", "properties": { "name": "道の駅つどいの郷むつざわ", "type": "観光資源", "city": "睦沢町" }, "geometry": { "type": "Point", "coordinates": [ 140.3035, 35.3521 ] } },
{ "type": "Feature", "properties": { "name": "道の駅ながら", "type": "観光資源", "city": "長柄町" }, "geometry": { "type": "Point", "coordinates": [ 140.2067, 35.4573 ] } },
{ "type": "Feature", "properties": { "name": "道の駅たけゆらの里大多喜", "type": "観光資源", "city": "大多喜町" }, "geometry": { "type": "Point", "coordinates": [ 140.2586, 35.2549 ] } },
{ "type": "Feature", "properties": { "name": "月の沙漠記念館", "type": "観光資源", "city": "御宿町" }, "geometry": { "type": "Point", "coordinates": [ 140.3578, 35.1843 ] } },
{ "type": "Feature", "properties": { "name": "御宿ウォーターパーク", "type": "観光資源", "city": "御宿町" }, "geometry": { "type": "Point", "coordinates": [ 140.3553, 35.1842 ] } },
{ "type": "Feature", "properties": { "name": "御宿浜海水浴場", "type": "観光資源", "city": "御宿町" }, "geometry": { "type": "Point", "coordinates": [ 140.3498, 35.1812 ] } },
{ "type": "Feature", "properties": { "name": "御宿町歴史民俗資料館", "type": "観光資源", "city": "御宿町" }, "geometry": { "type": "Point", "coordinates": [ 140.3539, 35.1872 ] } },
{ "type": "Feature", "properties": { "name": "菱川師宣記念館", "type": "観光資源", "city": "鋸南町" }, "geometry": { "type": "Point", "coordinates": [ 139.8364, 35.128 ] } },
{ "type": "Feature", "properties": { "name": "東京ディズニーリゾート", "type": "追加", "city": "浦安市" }, "geometry": { "type": "Point", "coordinates": [ 139.8828695, 35.6306579 ] } },
{ "type": "Feature", "properties": { "name": "マザー牧場", "type": "追加", "city": "富津市" }, "geometry": { "type": "Point", "coordinates": [ 139.940665200000012, 35.2480327 ] } },
{ "type": "Feature", "properties": { "name": "鴨川シーワールド", "type": "追加", "city": "鴨川市" }, "geometry": { "type": "Point", "coordinates": [ 140.1203229, 35.115895 ] } },
{ "type": "Feature", "properties": { "name": "東京ドイツ村", "type": "追加", "city": "袖ケ浦市" }, "geometry": { "type": "Point", "coordinates": [ 140.0539067, 35.4056432 ] } },
{ "type": "Feature", "properties": { "name": "ふなばしアンデルセン公園", "type": "追加", "city": "船橋市" }, "geometry": { "type": "Point", "coordinates": [ 140.0615382, 35.760458 ] } },
{ "type": "Feature", "properties": { "name": "市川市動植物園", "type": "追加", "city": "市川市" }, "geometry": { "type": "Point", "coordinates": [ 139.9659901, 35.7642063 ] } },
{ "type": "Feature", "properties": { "name": "千葉市動物公園", "type": "追加", "city": "千葉市" }, "geometry": { "type": "Point", "coordinates": [ 140.127278600000011, 35.6448994 ] } },
{ "type": "Feature", "properties": { "name": "成田ゆめ牧場", "type": "追加", "city": "成田市" }, "geometry": { "type": "Point", "coordinates": [ 140.3187418, 35.7766588 ] } },
{ "type": "Feature", "properties": { "name": "九十九里浜", "type": "追加", "city": "九十九里町" }, "geometry": { "type": "Point", "coordinates": [ 140.4396558, 35.5348912 ] } },
{ "type": "Feature", "properties": { "name": "白子海岸", "type": "追加", "city": "白子町" }, "geometry": { "type": "Point", "coordinates": [ 140.4042814, 35.448287 ] } },
{ "type": "Feature", "properties": { "name": "一宮海岸", "type": "追加", "city": "一宮町" }, "geometry": { "type": "Point", "coordinates": [ 140.3909912, 35.3774261 ] } },
{ "type": "Feature", "properties": { "name": "御宿海岸", "type": "追加", "city": "御宿町" }, "geometry": { "type": "Point", "coordinates": [ 140.351368400000013, 35.1816239 ] } },
{ "type": "Feature", "properties": { "name": "館山海岸", "type": "追加", "city": "館山市" }, "geometry": { "type": "Point", "coordinates": [ 139.870044, 34.9965461 ] } },
{ "type": "Feature", "properties": { "name": "銚子海岸", "type": "追加", "city": "銚子市" }, "geometry": { "type": "Point", "coordinates": [ 140.839803, 35.7073694 ] } },
{ "type": "Feature", "properties": { "name": "犬吠埼", "type": "追加", "city": "銚子市" }, "geometry": { "type": "Point", "coordinates": [ 140.8635229, 35.7066513 ] } },
{ "type": "Feature", "properties": { "name": "野島崎", "type": "追加", "city": "南房総市" }, "geometry": { "type": "Point", "coordinates": [ 139.8881733, 34.9003701 ] } },
{ "type": "Feature", "properties": { "name": "亀山湖", "type": "追加", "city": "君津市" }, "geometry": { "type": "Point", "coordinates": [ 140.0861764, 35.2248801 ] } },
{ "type": "Feature", "properties": { "name": "濃溝の滝", "type": "追加", "city": "君津市" }, "geometry": { "type": "Point", "coordinates": [ 140.0601268, 35.1854017 ] } },
{ "type": "Feature", "properties": { "name": "養老渓谷", "type": "追加", "city": "市原市" }, "geometry": { "type": "Point", "coordinates": [ 140.161668, 35.25515864 ] } },
{ "type": "Feature", "properties": { "name": "清澄山", "type": "追加", "city": "鴨川市" }, "geometry": { "type": "Point", "coordinates": [ 140.1549723, 35.1635583 ] } },
{ "type": "Feature", "properties": { "name": "鋸山", "type": "追加", "city": "富津市" }, "geometry": { "type": "Point", "coordinates": [ 139.840766300000013, 35.1602977 ] } },
{ "type": "Feature", "properties": { "name": "三井アウトレットパーク木更津", "type": "追加", "city": "木更津市" }, "geometry": { "type": "Point", "coordinates": [ 139.9346386, 35.4355861 ] } },
{ "type": "Feature", "properties": { "name": "袖ケ浦海浜公園", "type": "追加", "city": "袖ケ浦市" }, "geometry": { "type": "Point", "coordinates": [ 139.9539727, 35.4558405 ] } },
{ "type": "Feature", "properties": { "name": "佐倉ふるさと広場", "type": "追加", "city": "佐倉市" }, "geometry": { "type": "Point", "coordinates": [ 140.2021814, 35.7403869 ] } },
{ "type": "Feature", "properties": { "name": "成田山新勝寺", "type": "追加", "city": "成田市" }, "geometry": { "type": "Point", "coordinates": [ 140.31824850000001, 35.7860511 ] } },
{ "type": "Feature", "properties": { "name": "香取神宮", "type": "追加", "city": "香取市" }, "geometry": { "type": "Point", "coordinates": [ 140.528720099999987, 35.8861602 ] } },
{ "type": "Feature", "properties": { "name": "安房神社", "type": "追加", "city": "館山市" }, "geometry": { "type": "Point", "coordinates": [ 139.836879900000014, 34.9224666 ] } },
{ "type": "Feature", "properties": { "name": "大本山小湊誕生寺", "type": "追加", "city": "鴨川市" }, "geometry": { "type": "Point", "coordinates": [ 140.198642400000011, 35.1182779 ] } },
{ "type": "Feature", "properties": { "name": "清澄寺", "type": "追加", "city": "鴨川市" }, "geometry": { "type": "Point", "coordinates": [ 140.151392, 35.160954 ] } },
{ "type": "Feature", "properties": { "name": "飯沼観音", "type": "追加", "city": "銚子市" }, "geometry": { "type": "Point", "coordinates": [ 140.8407398, 35.7319289 ] } },
{ "type": "Feature", "properties": { "name": "本土寺", "type": "追加", "city": "松戸市" }, "geometry": { "type": "Point", "coordinates": [ 139.928472, 35.8401272 ] } },
{ "type": "Feature", "properties": { "name": "国立歴史民俗博物館", "type": "追加", "city": "佐倉市" }, "geometry": { "type": "Point", "coordinates": [ 140.2191306, 35.7243611 ] } },
{ "type": "Feature", "properties": { "name": "千葉市美術館", "type": "追加", "city": "千葉市" }, "geometry": { "type": "Point", "coordinates": [ 140.124693900000011, 35.6088889 ] } },
{ "type": "Feature", "properties": { "name": "航空科学博物館", "type": "追加", "city": "芝山町" }, "geometry": { "type": "Point", "coordinates": [ 140.3977966, 35.7403564 ] } },
{ "type": "Feature", "properties": { "name": "鴨川温泉", "type": "追加", "city": "鴨川市" }, "geometry": { "type": "Point", "coordinates": [ 140.099032200000011, 35.1133206 ] } },
{ "type": "Feature", "properties": { "name": "館山温泉", "type": "追加", "city": "館山市" }, "geometry": { "type": "Point", "coordinates": [ 139.870044, 34.9965461 ] } },
{ "type": "Feature", "properties": { "name": "白子温泉", "type": "追加", "city": "白子町" }, "geometry": { "type": "Point", "coordinates": [ 140.3986169, 35.4463061 ] } },
{ "type": "Feature", "properties": { "name": "犬吠埼温泉", "type": "追加", "city": "銚子市" }, "geometry": { "type": "Point", "coordinates": [ 140.86247, 35.7001753 ] } },
{ "type": "Feature", "properties": { "name": "成田国際空港", "type": "追加", "city": "成田市" }, "geometry": { "type": "Point", "coordinates": [ 140.3843215, 35.770178 ] } },
{ "type": "Feature", "properties": { "name": "幕張メッセ", "type": "追加", "city": "千葉市" }, "geometry": { "type": "Point", "coordinates": [ 140.0355286, 35.6476856 ] } },
{ "type": "Feature", "properties": { "name": "千葉ポートタワー", "type": "追加", "city": "千葉市" }, "geometry": { "type": "Point", "coordinates": [ 140.0979386, 35.6002484 ] } },
{ "type": "Feature", "properties": { "name": "海ほたる", "type": "追加", "city": "木更津市" }, "geometry": { "type": "Point", "coordinates": [ 139.8753237, 35.4637979 ] } },
{ "type": "Feature", "properties": { "name": "稲毛海浜公園", "type": "追加", "city": "千葉市" }, "geometry": { "type": "Point", "coordinates": [ 140.063797599999987, 35.6175252 ] } },
{ "type": "Feature", "properties": { "name": "木更津アウトレット", "type": "追加", "city": "木更津市" }, "geometry": { "type": "Point", "coordinates": [ 139.9346386, 35.4355861 ] } },
{ "type": "Feature", "properties": { "name": "佐倉城跡公園", "type": "追加", "city": "佐倉市" }, "geometry": { "type": "Point", "coordinates": [ 140.2334572, 35.6912211 ] } },
{ "type": "Feature", "properties": { "name": "千葉城", "type": "追加", "city": "千葉市" }, "geometry": { "type": "Point", "coordinates": [ 140.1260518, 35.6049463 ] } },
{ "type": "Feature", "properties": { "name": "伊能忠敬記念館", "type": "追加", "city": "香取市" }, "geometry": { "type": "Point", "coordinates": [ 140.4972162, 35.8883842 ] } },
{ "type": "Feature", "properties": { "name": "千葉県立中央博物館", "type": "追加", "city": "千葉市" }, "geometry": { "type": "Point", "coordinates": [ 140.138400499999989, 35.5998298 ] } },
{ "type": "Feature", "properties": { "name": "房総のむら", "type": "追加", "city": "栄町" }, "geometry": { "type": "Point", "coordinates": [ 140.273066300000011, 35.8228912 ] } },
{ "type": "Feature", "properties": { "name": "野田市郷土博物館", "type": "追加", "city": "野田市" }, "geometry": { "type": "Point", "coordinates": [ 139.8654482, 35.9453469 ] } },
{ "type": "Feature", "properties": { "name": "君津の森", "type": "追加", "city": "君津市" }, "geometry": { "type": "Point", "coordinates": [ 140.026982, 35.2876446 ] } },
{ "type": "Feature", "properties": { "name": "大山千枚田", "type": "追加", "city": "鴨川市" }, "geometry": { "type": "Point", "coordinates": [ 139.974374399999988, 35.1296199 ] } },
{ "type": "Feature", "properties": { "name": "白浜フラワーパーク", "type": "追加", "city": "南房総市" }, "geometry": { "type": "Point", "coordinates": [ 139.828834, 34.910793 ] } },
{ "type": "Feature", "properties": { "name": "富津岬", "type": "追加", "city": "富津市" }, "geometry": { "type": "Point", "coordinates": [ 139.7854089, 35.3127131 ] } },
{ "type": "Feature", "properties": { "name": "勝浦朝市", "type": "追加", "city": "勝浦市" }, "geometry": { "type": "Point", "coordinates": [ 140.3152816, 35.1487321 ] } },
{ "type": "Feature", "properties": { "name": "銚子漁港", "type": "追加", "city": "銚子市" }, "geometry": { "type": "Point", "coordinates": [ 140.8390571, 35.7336695 ] } },
{ "type": "Feature", "properties": { "name": "幕張新都心", "type": "追加", "city": "千葉市" }, "geometry": { "type": "Point", "coordinates": [ 140.0358989, 35.6538331 ] } },
{ "type": "Feature", "properties": { "name": "柏の葉キャンパス", "type": "追加", "city": "柏市" }, "geometry": { "type": "Point", "coordinates": [ 139.952603, 35.893248 ] } },
{ "type": "Feature", "properties": { "name": "成田空港", "type": "追加", "city": "成田市" }, "geometry": { "type": "Point", "coordinates": [ 140.3843215, 35.770178 ] } },
{ "type": "Feature", "properties": { "name": "千葉大学", "type": "追加", "city": "千葉市" }, "geometry": { "type": "Point", "coordinates": [ 140.1031276, 35.6277755 ] } },
{ "type": "Feature", "properties": { "name": "東京理科大学野田キャンパス", "type": "追加", "city": "野田市" }, "geometry": { "type": "Point", "coordinates": [ 139.90797950000001, 35.9182015 ] } },
{ "type": "Feature", "properties": { "name": "麗澤大学", "type": "追加", "city": "柏市" }, "geometry": { "type": "Point", "coordinates": [ 139.9549897, 35.8330964 ] } },
{ "type": "Feature", "properties": { "name": "キッコーマンアリーナ", "type": "追加", "city": "流山市" }, "geometry": { "type": "Point", "coordinates": [ 139.917732300000011, 35.8588852 ] } },
{ "type": "Feature", "properties": { "name": "チバニアンビジターセンター", "type": "追加", "city": "市原市" }, "geometry": { "type": "Point", "coordinates": [ 140.148432500000013, 35.2965712 ] } }
]
}
